[{"Id":8233,"Name":"10 de Diciembre","Nation":"Mexico","Town":"Ciudad Cooperativa Cruz Azul","Latitude":19.99395751953125,"Longitude":-99.325408935546875,"Capacity":"17.000"},{"Id":7365,"Name":"12 Haziran","Nation":"Turkey","Town":"Amasya","Latitude":40.65295,"Longitude":35.81185,"Capacity":"???"},{"Id":7366,"Name":"12 Şubat Stadyumu","Nation":"Turkey","Town":"Kahramanmaraş","Latitude":0.0,"Longitude":0.0,"Capacity":"15.050"},{"Id":7367,"Name":"13 Şubat Stadyumu","Nation":"Turkey","Town":"Erzincan","Latitude":39.750640869140625,"Longitude":39.496841430664062,"Capacity":"???"},{"Id":7368,"Name":"16 Mayıs Şehir Stadyumu","Nation":"Turkey","Town":"Batman","Latitude":0.0,"Longitude":0.0,"Capacity":"???"},{"Id":8116,"Name":"17 Mei","Nation":"Indonesia","Town":"Banjarmasin","Latitude":-3.3170900344848633,"Longitude":114.58011627197266,"Capacity":"15.000"},{"Id":3608,"Name":"19 Mayis","Nation":"Turkey","Town":"Manisa","Latitude":38.623283386230469,"Longitude":27.439722061157227,"Capacity":"20.000"},{"Id":8350,"Name":"1er Novembre 1954","Nation":"Algeria","Town":"Tizi Ouzou","Latitude":36.706890106201172,"Longitude":4.056063175201416,"Capacity":"25.000"},{"Id":8351,"Name":"1er Novembre 1954","Nation":"Algeria","Town":"Batna","Latitude":35.557296752929688,"Longitude":6.1879358291625977,"Capacity":"20.000"},{"Id":6300,"Name":"2. pamatskolas stadions","Nation":"Latvia","Town":"Ventspils","Latitude":0.0,"Longitude":0.0,"Capacity":"500"},{"Id":8352,"Name":"20 août 1955","Nation":"Algeria","Town":"Bordj Bou Arriredj","Latitude":36.069374084472656,"Longitude":4.7860798835754395,"Capacity":"30.000"},{"Id":8353,"Name":"20 août 1955","Nation":"Algeria","Town":"Béchar","Latitude":31.605678558349609,"Longitude":-2.2183270454406738,"Capacity":"8.000"},{"Id":8354,"Name":"20 août 1955","Nation":"Algeria","Town":"Algier","Latitude":36.74560546875,"Longitude":3.0784893035888672,"Capacity":"20.000"},{"Id":8531,"Name":"23 de Agosto","Nation":"Argentina","Town":"San Salvador","Latitude":-24.198553085327148,"Longitude":-65.29083251953125,"Capacity":"23.000"},{"Id":8355,"Name":"24 février","Nation":"Algeria","Town":"Sidi Bel Abbès","Latitude":35.185108184814453,"Longitude":-0.62190300226211548,"Capacity":"45.000"},{"Id":5127,"Name":"24nexx Arena","Nation":"Germany","Town":"Hamm","Latitude":51.690570831298828,"Longitude":7.8350138664245605,"Capacity":"8.500"},{"Id":6662,"Name":"25 de Abril","Nation":"Portugal","Town":"Penafiel","Latitude":41.211784362792969,"Longitude":-8.2779579162597656,"Capacity":"6.500"},{"Id":6643,"Name":"25 de Abril","Nation":"Portugal","Town":"Penafiel","Latitude":41.211784362792969,"Longitude":-8.2779579162597656,"Capacity":"6.500"},{"Id":8342,"Name":"30 June Air Defence Stadium","Nation":"Egypt","Town":"Cairo","Latitude":30.01991081237793,"Longitude":31.373775482177734,"Capacity":"30.000"},{"Id":8366,"Name":"30 June Air Defence Stadium","Nation":"Egypt","Town":"Cairo","Latitude":30.01991081237793,"Longitude":31.373775482177734,"Capacity":"30.000"},{"Id":7346,"Name":"4 Eylül","Nation":"Turkey","Town":"Sivas","Latitude":39.741123199462891,"Longitude":37.0031852722168,"Capacity":"18.700"},{"Id":7328,"Name":"4 Eylül","Nation":"Turkey","Town":"Sivas","Latitude":39.741123199462891,"Longitude":37.0031852722168,"Capacity":"18.700"},{"Id":3884,"Name":"4 Eylül","Nation":"Turkey","Town":"Sivas","Latitude":39.741123199462891,"Longitude":37.0031852722168,"Capacity":"18.700"},{"Id":8356,"Name":"5 Juillet 1962","Nation":"Algeria","Town":"Algier","Latitude":36.7598762512207,"Longitude":2.9951691627502441,"Capacity":"70.000"},{"Id":7347,"Name":"5 Ocak Fatih Terim Stadı","Nation":"Turkey","Town":"Adana","Latitude":36.999019622802734,"Longitude":35.329696655273438,"Capacity":"16.095"},{"Id":7369,"Name":"5 Ocak Fatih Terim Stadı","Nation":"Turkey","Town":"Adana","Latitude":36.999019622802734,"Longitude":35.329696655273438,"Capacity":"16.095"},{"Id":4803,"Name":"53acht-Arena","Nation":"Germany","Town":"Edewecht","Latitude":53.091114044189453,"Longitude":8.0579910278320312,"Capacity":"2.000"},{"Id":3885,"Name":"A. Le Coq Arena","Nation":"Estonia","Town":"Tallinn","Latitude":59.421390533447266,"Longitude":24.732099533081055,"Capacity":"10.300"},{"Id":3817,"Name":"A. Le Coq Arena","Nation":"Estonia","Town":"Tallinn","Latitude":59.421390533447266,"Longitude":24.732099533081055,"Capacity":"10.300"},{"Id":3556,"Name":"A. Le Coq Arena","Nation":"Estonia","Town":"Tallinn","Latitude":59.421390533447266,"Longitude":24.732099533081055,"Capacity":"10.300"},{"Id":3364,"Name":"A. Le Coq Arena","Nation":"Estonia","Town":"Tallinn","Latitude":59.421390533447266,"Longitude":24.732099533081055,"Capacity":"10.300"},{"Id":3485,"Name":"A. Le Coq Arena","Nation":"Estonia","Town":"Tallinn","Latitude":59.421390533447266,"Longitude":24.732099533081055,"Capacity":"10.300"},{"Id":3665,"Name":"A. Le Coq Arena","Nation":"Estonia","Town":"Tallinn","Latitude":59.421390533447266,"Longitude":24.732099533081055,"Capacity":"10.300"},{"Id":6241,"Name":"A. Rognoni","Nation":"Italy","Town":"Villa Silvia di Lizzano","Latitude":44.104923248291016,"Longitude":12.197508811950684,"Capacity":"???"},{"Id":4406,"Name":"Aab’s anlæg","Nation":"Denmark","Town":"Aalborg","Latitude":57.043727874755859,"Longitude":10.021422386169434,"Capacity":"1.000"},{"Id":4442,"Name":"Aab’s anlæg","Nation":"Denmark","Town":"Aalborg","Latitude":57.043727874755859,"Longitude":10.021422386169434,"Capacity":"1.000"},{"Id":7981,"Name":"AAMI Park","Nation":"Australia","Town":"Melbourne","Latitude":-37.825225830078125,"Longitude":144.98330688476562,"Capacity":"30.050"},{"Id":8013,"Name":"AAMI Park","Nation":"Australia","Town":"Melbourne","Latitude":-37.825225830078125,"Longitude":144.98330688476562,"Capacity":"30.050"},{"Id":8031,"Name":"AAMI Park","Nation":"Australia","Town":"Melbourne","Latitude":-37.825225830078125,"Longitude":144.98330688476562,"Capacity":"30.050"},{"Id":4596,"Name":"Abbe Deschamps","Nation":"France","Town":"Auxerre","Latitude":47.786735534667969,"Longitude":3.5886454582214355,"Capacity":"23.493"},{"Id":4665,"Name":"Abbe Deschamps","Nation":"France","Town":"Auxerre","Latitude":47.786735534667969,"Longitude":3.5886454582214355,"Capacity":"23.493"},{"Id":5774,"Name":"Abbey Stadium","Nation":"England","Town":"Cambridge","Latitude":52.212104797363281,"Longitude":0.15414655208587646,"Capacity":"9.018"},{"Id":5917,"Name":"Abbey Stadium","Nation":"England","Town":"Cambridge","Latitude":52.212104797363281,"Longitude":0.15414655208587646,"Capacity":"9.018"},{"Id":8142,"Name":"Abdullah bin Khalifa Stadium","Nation":"Qatar","Town":"Doha","Latitude":25.373081207275391,"Longitude":51.469146728515625,"Capacity":"10.221"},{"Id":7982,"Name":"Abdullah bin Khalifa Stadium","Nation":"Qatar","Town":"Doha","Latitude":25.373081207275391,"Longitude":51.469146728515625,"Capacity":"10.221"},{"Id":6377,"Name":"Abe Lenstra Stadion","Nation":"Netherlands","Town":"Heerenveen","Latitude":52.958587646484375,"Longitude":5.936002254486084,"Capacity":"26.100"},{"Id":3818,"Name":"Abe Lenstra Stadion","Nation":"Netherlands","Town":"Heerenveen","Latitude":52.958587646484375,"Longitude":5.936002254486084,"Capacity":"26.100"},{"Id":4919,"Name":"ABT-Arena","Nation":"Germany","Town":"Durach","Latitude":47.699882507324219,"Longitude":10.328164100646973,"Capacity":"2.000"},{"Id":5978,"Name":"Academy Stadium","Nation":"England","Town":"Manchester","Latitude":53.481109619140625,"Longitude":-2.1927781105041504,"Capacity":"7.000"},{"Id":3944,"Name":"Academy Stadium","Nation":"England","Town":"Manchester","Latitude":53.481109619140625,"Longitude":-2.1927781105041504,"Capacity":"7.000"},{"Id":3993,"Name":"Academy Stadium","Nation":"Russia","Town":"Krasnodar","Latitude":45.043388366699219,"Longitude":39.035560607910156,"Capacity":"3.000"},{"Id":4102,"Name":"Academy Stadium","Nation":"England","Town":"Manchester","Latitude":53.481109619140625,"Longitude":-2.1927781105041504,"Capacity":"7.000"},{"Id":6792,"Name":"Academy Stadium","Nation":"Russia","Town":"Krasnodar","Latitude":45.043388366699219,"Longitude":39.035560607910156,"Capacity":"3.000"},{"Id":6774,"Name":"Achmat Arena","Nation":"Russia","Town":"Grozniy","Latitude":43.323177337646484,"Longitude":45.745254516601562,"Capacity":"30.597"},{"Id":6819,"Name":"Achmat Arena","Nation":"Russia","Town":"Grozniy","Latitude":43.323177337646484,"Longitude":45.745254516601562,"Capacity":"30.597"},{"Id":5918,"Name":"Adams Park","Nation":"England","Town":"Wycombe","Latitude":51.63055419921875,"Longitude":-0.800204873085022,"Capacity":"10.000"},{"Id":5750,"Name":"Adams Park","Nation":"England","Town":"Wycombe","Latitude":51.63055419921875,"Longitude":-0.800204873085022,"Capacity":"10.000"},{"Id":5500,"Name":"ADM-Sportpark Kunstrasenplatz","Nation":"Germany","Town":"Stuttgart","Latitude":48.747039794921875,"Longitude":9.1879901885986328,"Capacity":"???"},{"Id":5606,"Name":"ADM-Sportpark Kunstrasenplatz","Nation":"Germany","Town":"Stuttgart","Latitude":48.747039794921875,"Longitude":9.1879901885986328,"Capacity":"???"},{"Id":5010,"Name":"Adolf-Jäger-Kampfbahn","Nation":"Germany","Town":"Hamburg","Latitude":53.555492401123047,"Longitude":9.91142749786377,"Capacity":"8.000"},{"Id":5193,"Name":"Adolf-Jäger-Kampfbahn","Nation":"Germany","Town":"Hamburg","Latitude":53.555492401123047,"Longitude":9.91142749786377,"Capacity":"8.000"},{"Id":5246,"Name":"Adolf-Jäger-Kampfbahn","Nation":"Germany","Town":"Hamburg","Latitude":53.555492401123047,"Longitude":9.91142749786377,"Capacity":"8.000"},{"Id":5979,"Name":"AE Elite Football Performance Centre","Nation":"England","Town":"Lancing","Latitude":50.831333160400391,"Longitude":-0.3107219934463501,"Capacity":"???"},{"Id":6007,"Name":"AE Elite Football Performance Centre","Nation":"England","Town":"Lancing","Latitude":50.831333160400391,"Longitude":-0.3107219934463501,"Capacity":"???"},{"Id":4208,"Name":"AE Elite Football Performance Centre","Nation":"England","Town":"Lancing","Latitude":50.831333160400391,"Longitude":-0.3107219934463501,"Capacity":"???"},{"Id":4384,"Name":"AEK Arena","Nation":"Cyprus","Town":"Larnaca","Latitude":0.0,"Longitude":0.0,"Capacity":"7.400"},{"Id":3666,"Name":"AEK Arena","Nation":"Cyprus","Town":"Larnaca","Latitude":0.0,"Longitude":0.0,"Capacity":"7.400"},{"Id":5671,"Name":"AEL Arena","Nation":"Greece","Town":"Larisa","Latitude":0.0,"Longitude":0.0,"Capacity":"16.118"},{"Id":5634,"Name":"AEL Arena","Nation":"Greece","Town":"Larisa","Latitude":0.0,"Longitude":0.0,"Capacity":"16.118"},{"Id":5651,"Name":"AEL Arena","Nation":"Greece","Town":"Larisa","Latitude":0.0,"Longitude":0.0,"Capacity":"16.118"},{"Id":3667,"Name":"AFAS Stadion","Nation":"Netherlands","Town":"Alkmaar","Latitude":52.612766265869141,"Longitude":4.742154598236084,"Capacity":"17.023"},{"Id":6378,"Name":"AFAS Stadion","Nation":"Netherlands","Town":"Alkmaar","Latitude":52.612766265869141,"Longitude":4.742154598236084,"Capacity":"17.023"},{"Id":6395,"Name":"AFAS Stadion","Nation":"Netherlands","Town":"Alkmaar","Latitude":52.612766265869141,"Longitude":4.742154598236084,"Capacity":"17.023"},{"Id":6434,"Name":"AFAS Stadion","Nation":"Netherlands","Town":"Alkmaar","Latitude":52.612766265869141,"Longitude":4.742154598236084,"Capacity":"17.023"},{"Id":6396,"Name":"AFAS Trainingscomplex","Nation":"Netherlands","Town":"Wijdewormer","Latitude":0.0,"Longitude":0.0,"Capacity":"1.000"},{"Id":6561,"Name":"AFAS Trainingscomplex","Nation":"Netherlands","Town":"Wijdewormer","Latitude":0.0,"Longitude":0.0,"Capacity":"1.000"},{"Id":4338,"Name":"AFAS-Stadion Achter de Kazerne","Nation":"Belgium","Town":"Mechelen","Latitude":51.037223815917969,"Longitude":4.48638916015625,"Capacity":"18.477"},{"Id":7348,"Name":"Afyon Yeni Şehir","Nation":"Turkey","Town":"Afyonkarahisar","Latitude":38.813315,"Longitude":30.481806,"Capacity":"???"},{"Id":4443,"Name":"AGF’s anlæg Fredensvang","Nation":"Denmark","Town":"Viby","Latitude":56.124904632568359,"Longitude":10.177133560180664,"Capacity":"1.000"},{"Id":4407,"Name":"AGF’s anlæg Fredensvang","Nation":"Denmark","Town":"Viby","Latitude":56.124904632568359,"Longitude":10.177133560180664,"Capacity":"1.000"},{"Id":6217,"Name":"Agostino Di Bartolomei","Nation":"Italy","Town":"Roma","Latitude":41.746829986572266,"Longitude":12.466338157653809,"Capacity":"1.500"},{"Id":6361,"Name":"Ågotnes Stadion","Nation":"Norway","Town":"Ågotnes","Latitude":60.406829,"Longitude":4.995903,"Capacity":"2.000"},{"Id":8357,"Name":"Ahmed Zabana","Nation":"Algeria","Town":"Oran","Latitude":35.683349609375,"Longitude":-0.6362910270690918,"Capacity":"40.000"},{"Id":7371,"Name":"Ahmet Suat Özyazıcı","Nation":"Turkey","Town":"Trabzon","Latitude":40.996742248535156,"Longitude":39.770851135253906,"Capacity":"7.900"},{"Id":4100,"Name":"Ainslie Park Stadium","Nation":"Scotland","Town":"Edinburgh","Latitude":0.0,"Longitude":0.0,"Capacity":"???"},{"Id":8117,"Name":"Aji Imbut","Nation":"Indonesia","Town":"Tenggarong","Latitude":-0.42845499515533447,"Longitude":117.00745391845703,"Capacity":"35.000"},{"Id":8080,"Name":"Ajinomoto Stadium","Nation":"Japan","Town":"Tokyo","Latitude":35.664253234863281,"Longitude":139.52714538574219,"Capacity":"49.970"},{"Id":4456,"Name":"Akademisk Boldklub Skovdiget","Nation":"Denmark","Town":"Bagsværd","Latitude":55.762260437011719,"Longitude":12.43620491027832,"Capacity":"???"},{"Id":4421,"Name":"Akademisk Boldklub Skovdiget","Nation":"Denmark","Town":"Bagsværd","Latitude":55.762260437011719,"Longitude":12.43620491027832,"Capacity":"???"},{"Id":4175,"Name":"Akdeniz Üniversiti-Stadion","Nation":"Turkey","Town":"Antalya","Latitude":36.893741607666016,"Longitude":30.646839141845703,"Capacity":"8.037"},{"Id":4176,"Name":"Aker Stadion","Nation":"Norway","Town":"Molde","Latitude":62.733272552490234,"Longitude":7.14784049987793,"Capacity":"11.167"},{"Id":3668,"Name":"Aker Stadion","Nation":"Norway","Town":"Molde","Latitude":62.733272552490234,"Longitude":7.14784049987793,"Capacity":"11.167"},{"Id":6344,"Name":"Aker Stadion","Nation":"Norway","Town":"Molde","Latitude":62.733272552490234,"Longitude":7.14784049987793,"Capacity":"11.167"},{"Id":7372,"Name":"Akhisar Arena","Nation":"Turkey","Town":"Akhisar","Latitude":38.920833587646484,"Longitude":27.811111450195312,"Capacity":"12.139"},{"Id":7329,"Name":"Akhisar Arena","Nation":"Turkey","Town":"Akhisar","Latitude":38.920833587646484,"Longitude":27.811111450195312,"Capacity":"12.139"},{"Id":3609,"Name":"Akhisar Arena","Nation":"Turkey","Town":"Akhisar","Latitude":38.920833587646484,"Longitude":27.811111450195312,"Capacity":"12.139"},{"Id":8234,"Name":"AKRON","Nation":"Mexico","Town":"Zapopan","Latitude":20.681835174560547,"Longitude":-103.46260070800781,"Capacity":"49.500"},{"Id":8212,"Name":"AKRON","Nation":"Mexico","Town":"Zapopan","Latitude":20.681835174560547,"Longitude":-103.46260070800781,"Capacity":"49.500"},{"Id":7373,"Name":"Aktepe","Nation":"Turkey","Town":"Ankara","Latitude":39.999153137207031,"Longitude":32.880733489990234,"Capacity":"7.000"},{"Id":8143,"Name":"Al Ahli SC Stadium","Nation":"Qatar","Town":"Doha","Latitude":25.251848220825195,"Longitude":51.535335540771484,"Capacity":"20.000"},{"Id":7983,"Name":"Al Ahli SC Stadium","Nation":"Qatar","Town":"Doha","Latitude":25.251848220825195,"Longitude":51.535335540771484,"Capacity":"20.000"},{"Id":8144,"Name":"Al Gharafa","Nation":"Qatar","Town":"Doha","Latitude":25.344747543334961,"Longitude":51.440547943115234,"Capacity":"25.000"},{"Id":8305,"Name":"Al Lang Stadium","Nation":"USA","Town":"Saint Petersburg, FL","Latitude":27.76793098449707,"Longitude":-82.63311767578125,"Capacity":"7.227"},{"Id":7984,"Name":"Al Maktoum Stadium","Nation":"United Arab Emirates","Town":"Dubai","Latitude":25.239971160888672,"Longitude":55.313003540039062,"Capacity":"15.000"},{"Id":7931,"Name":"Al Maktoum Stadium","Nation":"United Arab Emirates","Town":"Dubai","Latitude":25.239971160888672,"Longitude":55.313003540039062,"Capacity":"15.000"},{"Id":7932,"Name":"Al Nahyan Stadium","Nation":"United Arab Emirates","Town":"Abu Dhabi","Latitude":24.469324111938477,"Longitude":54.375316619873047,"Capacity":"12.000"},{"Id":7985,"Name":"Al Nahyan Stadium","Nation":"United Arab Emirates","Town":"Abu Dhabi","Latitude":24.469324111938477,"Longitude":54.375316619873047,"Capacity":"12.000"},{"Id":4473,"Name":"Albert-Kuntz-Sportpark","Nation":"Germany","Town":"Nordhausen","Latitude":51.521152496337891,"Longitude":10.782961845397949,"Capacity":"8.088"},{"Id":4495,"Name":"Albert-Kuntz-Sportpark","Nation":"Germany","Town":"Nordhausen","Latitude":51.521152496337891,"Longitude":10.782961845397949,"Capacity":"8.088"},{"Id":4511,"Name":"Albert-Kuntz-Sportpark","Nation":"Germany","Town":"Nordhausen","Latitude":51.521152496337891,"Longitude":10.782961845397949,"Capacity":"8.088"},{"Id":5087,"Name":"Albert-Kuntz-Sportpark","Nation":"Germany","Town":"Nordhausen","Latitude":51.521152496337891,"Longitude":10.782961845397949,"Capacity":"8.088"},{"Id":4822,"Name":"Albert-Kuntz-Sportpark","Nation":"Germany","Town":"Nordhausen","Latitude":51.521152496337891,"Longitude":10.782961845397949,"Capacity":"8.088"},{"Id":5088,"Name":"Albert-Kuntz-Sportpark Kunstrasenplatz","Nation":"Germany","Town":"Nordhausen","Latitude":51.520206451416016,"Longitude":10.78562068939209,"Capacity":"???"},{"Id":8660,"Name":"Alberto Gallardo","Nation":"Peru","Town":"Lima","Latitude":-12.037961959838867,"Longitude":-77.045181274414062,"Capacity":"18.000"},{"Id":8603,"Name":"Alberto Grisales","Nation":"Colombia","Town":"Rionegro","Latitude":0.0,"Longitude":0.0,"Capacity":"14.000"},{"Id":8465,"Name":"Alberto Grisales","Nation":"Colombia","Town":"Rionegro","Latitude":0.0,"Longitude":0.0,"Capacity":"14.000"},{"Id":6057,"Name":"Alberto Picco","Nation":"Italy","Town":"La Spezia","Latitude":44.102218627929688,"Longitude":9.808924674987793,"Capacity":"10.336"},{"Id":6076,"Name":"Alberto Picco","Nation":"Italy","Town":"La Spezia","Latitude":44.102218627929688,"Longitude":9.808924674987793,"Capacity":"10.336"},{"Id":7438,"Name":"Alcufer Stadion","Nation":"Hungary","Town":"Györ","Latitude":0.0,"Longitude":0.0,"Capacity":"4.500"},{"Id":4389,"Name":"Aldo Drosina","Nation":"Croatia","Town":"Pula","Latitude":44.861648559570312,"Longitude":13.851399421691895,"Capacity":"10.000"},{"Id":8632,"Name":"Alejandro Serrano Aguilar","Nation":"Ecuador","Town":"Cuenca","Latitude":-2.9066212177276611,"Longitude":-79.005767822265625,"Capacity":"22.000"},{"Id":8661,"Name":"Alejandro Villanueva","Nation":"Peru","Town":"Lima","Latitude":-12.068552017211914,"Longitude":-77.022933959960938,"Capacity":"35.000"},{"Id":8680,"Name":"Alejandro Villanueva","Nation":"Peru","Town":"Lima","Latitude":-12.068552017211914,"Longitude":-77.022933959960938,"Capacity":"35.000"},{"Id":5822,"Name":"Alexandra Stadium","Nation":"England","Town":"Crewe","Latitude":53.087474822998047,"Longitude":-2.435767650604248,"Capacity":"10.153"},{"Id":5775,"Name":"Alexandra Stadium","Nation":"England","Town":"Crewe","Latitude":53.087474822998047,"Longitude":-2.435767650604248,"Capacity":"10.153"},{"Id":5919,"Name":"Alexandra Stadium","Nation":"England","Town":"Crewe","Latitude":53.087474822998047,"Longitude":-2.435767650604248,"Capacity":"10.153"},{"Id":8344,"Name":"Alexandria Stadium","Nation":"Egypt","Town":"Alexandria","Latitude":31.197053909301758,"Longitude":29.913211822509766,"Capacity":"19.676"},{"Id":8368,"Name":"Alexandria Stadium","Nation":"Egypt","Town":"Alexandria","Latitude":31.197053909301758,"Longitude":29.913211822509766,"Capacity":"19.676"},{"Id":6345,"Name":"Alfheim Stadion","Nation":"Norway","Town":"Tromsø","Latitude":69.648895263671875,"Longitude":18.934577941894531,"Capacity":"7.500"},{"Id":8604,"Name":"Alfonso López","Nation":"Colombia","Town":"Bucaramanga","Latitude":0.0,"Longitude":0.0,"Capacity":"28.000"},{"Id":5089,"Name":"Alfred-Kunze-Sportpark","Nation":"Germany","Town":"Leipzig","Latitude":51.358242034912109,"Longitude":12.307621955871582,"Capacity":"18.000"},{"Id":4753,"Name":"Alfred-Kunze-Sportpark","Nation":"Germany","Town":"Leipzig","Latitude":51.358242034912109,"Longitude":12.307621955871582,"Capacity":"18.000"},{"Id":8532,"Name":"Alfredo Beranger","Nation":"Argentina","Town":"Turdera","Latitude":-34.782286,"Longitude":-58.399508,"Capacity":"21.000"},{"Id":8558,"Name":"Alfredo Beranger","Nation":"Argentina","Town":"Turdera","Latitude":0.0,"Longitude":0.0,"Capacity":"21.000"},{"Id":7042,"Name":"Alfredo Di Stéfano","Nation":"Spain","Town":"Madrid","Latitude":40.4769287109375,"Longitude":-3.6142539978027344,"Capacity":"9.000"},{"Id":4103,"Name":"Alfredo Di Stéfano","Nation":"Spain","Town":"Madrid","Latitude":40.4769287109375,"Longitude":-3.6142539978027344,"Capacity":"9.000"},{"Id":8235,"Name":"Alfredo Pistache Torres","Nation":"Mexico","Town":"Zapopan","Latitude":20.713361740112305,"Longitude":-103.40287780761719,"Capacity":"???"},{"Id":8256,"Name":"Alfredo Pistache Torres","Nation":"Mexico","Town":"Zapopan","Latitude":20.713361740112305,"Longitude":-103.40287780761719,"Capacity":"???"},{"Id":8533,"Name":"Alfredo Terrera","Nation":"Argentina","Town":"Santiago del Estero","Latitude":-27.794008,"Longitude":-64.264642,"Capacity":"15.000"},{"Id":8685,"Name":"Alfredo Victor Viera","Nation":"Uruguay","Town":"Montevideo","Latitude":-34.916595458984375,"Longitude":-56.166820526123047,"Capacity":"12.500"},{"Id":8466,"Name":"Alfredo Victor Viera","Nation":"Uruguay","Town":"Montevideo","Latitude":-34.916595458984375,"Longitude":-56.166820526123047,"Capacity":"12.500"},{"Id":5672,"Name":"Alkazar","Nation":"Greece","Town":"Larisa","Latitude":39.648780822753906,"Longitude":22.411773681640625,"Capacity":"13.108"},{"Id":8145,"Name":"Al-Khor Stadium","Nation":"Qatar","Town":"al-Khor","Latitude":25.679405212402344,"Longitude":51.492630004882812,"Capacity":"16.000"},{"Id":4754,"Name":"Allianz Arena","Nation":"Germany","Town":"München","Latitude":48.218746185302734,"Longitude":11.624608039855957,"Capacity":"75.024"},{"Id":4697,"Name":"Allianz Arena","Nation":"Germany","Town":"München","Latitude":48.218746185302734,"Longitude":11.624608039855957,"Capacity":"75.024"},{"Id":3521,"Name":"Allianz Arena","Nation":"Germany","Town":"München","Latitude":48.218746185302734,"Longitude":11.624608039855957,"Capacity":"75.024"},{"Id":3447,"Name":"Allianz Arena","Nation":"Germany","Town":"München","Latitude":48.218746185302734,"Longitude":11.624608039855957,"Capacity":"75.024"},{"Id":8151,"Name":"Allianz Field","Nation":"USA","Town":"Saint Paul, MN","Latitude":44.952777862548828,"Longitude":-93.165000915527344,"Capacity":"19.400"},{"Id":8282,"Name":"Allianz Field","Nation":"USA","Town":"Saint Paul, MN","Latitude":44.952777862548828,"Longitude":-93.165000915527344,"Capacity":"19.400"},{"Id":8424,"Name":"Allianz Parque","Nation":"Brazil","Town":"São Paulo","Latitude":-23.527555465698242,"Longitude":-46.678417205810547,"Capacity":"43.600"},{"Id":3354,"Name":"Allianz Riviera","Nation":"France","Town":"Nice","Latitude":43.705059051513672,"Longitude":7.192601203918457,"Capacity":"35.624"},{"Id":4575,"Name":"Allianz Riviera","Nation":"France","Town":"Nice","Latitude":43.705059051513672,"Longitude":7.192601203918457,"Capacity":"35.624"},{"Id":4666,"Name":"Allianz Riviera","Nation":"France","Town":"Nice","Latitude":43.705059051513672,"Longitude":7.192601203918457,"Capacity":"35.624"},{"Id":4260,"Name":"Allianz Stadion","Nation":"Austria","Town":"Wien","Latitude":48.198204040527344,"Longitude":16.266288757324219,"Capacity":"28.000"},{"Id":3669,"Name":"Allianz Stadion","Nation":"Austria","Town":"Wien","Latitude":48.198204040527344,"Longitude":16.266288757324219,"Capacity":"28.000"},{"Id":3610,"Name":"Allianz Stadion","Nation":"Austria","Town":"Wien","Latitude":48.198204040527344,"Longitude":16.266288757324219,"Capacity":"28.000"},{"Id":3522,"Name":"Allianz Stadium","Nation":"Italy","Town":"Torino","Latitude":45.109592437744141,"Longitude":7.6412467956542969,"Capacity":"41.254"},{"Id":3365,"Name":"Allianz Stadium","Nation":"Italy","Town":"Torino","Latitude":45.109592437744141,"Longitude":7.6412467956542969,"Capacity":"41.254"},{"Id":8014,"Name":"Allianz Stadium","Nation":"Australia","Town":"Sydney","Latitude":-33.889110565185547,"Longitude":151.22531127929688,"Capacity":"45.500"},{"Id":6040,"Name":"Allianz Stadium","Nation":"Italy","Town":"Torino","Latitude":45.109592437744141,"Longitude":7.6412467956542969,"Capacity":"41.254"},{"Id":7257,"Name":"Allmend Brunau","Nation":"Switzerland","Town":"Zürich","Latitude":47.353828430175781,"Longitude":8.52270793914795,"Capacity":"1.500"},{"Id":8534,"Name":"Almagro","Nation":"Argentina","Town":"José Ingenieros (Buenos Aires)","Latitude":-34.614112854003906,"Longitude":-58.534889221191406,"Capacity":"19.000"},{"Id":5105,"Name":"Alois-Omlor-Sportpark","Nation":"Germany","Town":"Homburg","Latitude":49.364540100097656,"Longitude":7.3222870826721191,"Capacity":"???"},{"Id":4733,"Name":"Alpenbauer Sportpark","Nation":"Germany","Town":"Unterhaching","Latitude":48.073772430419922,"Longitude":11.615747451782227,"Capacity":"15.053"},{"Id":5607,"Name":"Alpenbauer Sportpark","Nation":"Germany","Town":"Unterhaching","Latitude":48.073772430419922,"Longitude":11.615747451782227,"Capacity":"15.053"},{"Id":8343,"Name":"Al-Salam Stadium","Nation":"Egypt","Town":"Al-Salam City","Latitude":30.17528,"Longitude":31.435194,"Capacity":"30.000"},{"Id":8367,"Name":"Al-Salam Stadium","Nation":"Egypt","Town":"Al-Salam City","Latitude":30.175243,"Longitude":31.43528,"Capacity":"30.000"},{"Id":7107,"Name":"Álvarez Claro","Nation":"Spain","Town":"Melilla","Latitude":35.285190582275391,"Longitude":-2.9494330883026123,"Capacity":"10.000"},{"Id":6989,"Name":"Álvarez Claro","Nation":"Spain","Town":"Melilla","Latitude":35.285190582275391,"Longitude":-2.9494330883026123,"Capacity":"10.000"},{"Id":4104,"Name":"Alvogenvöllurinn","Nation":"Iceland","Town":"Reykjavík","Latitude":64.1463394165039,"Longitude":-21.966712951660156,"Capacity":"2.801"},{"Id":7939,"Name":"Al-Wakrah Stadium","Nation":"Qatar","Town":"al-Wakra","Latitude":25.180263519287109,"Longitude":51.59649658203125,"Capacity":"20.000"},{"Id":8081,"Name":"Alwin Stadium","Nation":"Japan","Town":"Matsumoto","Latitude":36.179660797119141,"Longitude":137.91712951660156,"Capacity":"20.396"},{"Id":3670,"Name":"Alytus Stadium","Nation":"Lithuania","Town":"Alytus","Latitude":54.392070770263672,"Longitude":24.055177688598633,"Capacity":"4.000"},{"Id":5407,"Name":"Am alten Galgen","Nation":"Germany","Town":"Wachenheim","Latitude":49.441230773925781,"Longitude":8.1909475326538086,"Capacity":"???"},{"Id":4992,"Name":"Am Bruchwald","Nation":"Germany","Town":"Bietigheim-Bissingen","Latitude":48.941848754882812,"Longitude":9.1152353286743164,"Capacity":"3.000"},{"Id":5608,"Name":"Am Halberg","Nation":"Germany","Town":"Taunusstein","Latitude":50.159919738769531,"Longitude":8.183903694152832,"Capacity":"5.000"},{"Id":4937,"Name":"Am Panzenberg","Nation":"Germany","Town":"Bremen","Latitude":53.086685180664062,"Longitude":8.79439926147461,"Capacity":"8.000"},{"Id":4880,"Name":"Am Schönbusch","Nation":"Germany","Town":"Aschaffenburg","Latitude":49.970317840576172,"Longitude":9.129939079284668,"Capacity":"9.050"},{"Id":5705,"Name":"Amex Stadium","Nation":"England","Town":"Brighton","Latitude":50.861820220947266,"Longitude":-0.083278000354766846,"Capacity":"30.750"},{"Id":5823,"Name":"Amex Stadium","Nation":"England","Town":"Brighton","Latitude":50.861820220947266,"Longitude":-0.083278000354766846,"Capacity":"30.750"},{"Id":5920,"Name":"Amex Stadium","Nation":"England","Town":"Brighton","Latitude":50.861820220947266,"Longitude":-0.083278000354766846,"Capacity":"30.750"},{"Id":5980,"Name":"Amex Stadium","Nation":"England","Town":"Brighton","Latitude":50.861820220947266,"Longitude":-0.083278000354766846,"Capacity":"30.750"},{"Id":3819,"Name":"Amica","Nation":"Poland","Town":"Wronki","Latitude":52.718223571777344,"Longitude":16.37486457824707,"Capacity":"5.296"},{"Id":3851,"Name":"Amica","Nation":"Poland","Town":"Wronki","Latitude":52.718223571777344,"Longitude":16.37486457824707,"Capacity":"5.296"},{"Id":5798,"Name":"Amlin Stadium","Nation":"England","Town":"Braintree","Latitude":51.875259399414062,"Longitude":0.57287400960922241,"Capacity":"4.151"},{"Id":3986,"Name":"Ammochostos-Amberia Stadium","Nation":"Cyprus","Town":"Larnaca","Latitude":34.930007934570312,"Longitude":33.613273620605469,"Capacity":"4.000"},{"Id":4385,"Name":"Ammochostos-Amberia Stadium","Nation":"Cyprus","Town":"Larnaca","Latitude":34.930007934570312,"Longitude":33.613273620605469,"Capacity":"4.000"},{"Id":4512,"Name":"An der Alten Försterei","Nation":"Germany","Town":"Berlin","Latitude":52.457389831542969,"Longitude":13.56812572479248,"Capacity":"22.012"},{"Id":5189,"Name":"An der Alten Försterei","Nation":"Germany","Town":"Berlin","Latitude":52.457389831542969,"Longitude":13.56812572479248,"Capacity":"22.012"},{"Id":4715,"Name":"An der Alten Försterei","Nation":"Germany","Town":"Berlin","Latitude":52.457389831542969,"Longitude":13.56812572479248,"Capacity":"22.012"},{"Id":4804,"Name":"An der Anmerke","Nation":"Germany","Town":"Barsinghausen","Latitude":52.286464691162109,"Longitude":9.51009750366211,"Capacity":"3.000"},{"Id":5070,"Name":"An der Eishalle","Nation":"Germany","Town":"Malchow","Latitude":53.471256256103516,"Longitude":12.406035423278809,"Capacity":"???"},{"Id":4976,"Name":"An der Hasenweide","Nation":"Germany","Town":"Vechta","Latitude":52.733230590820312,"Longitude":8.3128013610839844,"Capacity":"2.000"},{"Id":7312,"Name":"Ancien Stand","Nation":"Switzerland","Town":"Sion","Latitude":0.0,"Longitude":0.0,"Capacity":"???"},{"Id":3820,"Name":"Anđelko Herjavec","Nation":"Croatia","Town":"Varazdin","Latitude":46.313442230224609,"Longitude":16.341712951660156,"Capacity":"9.800"},{"Id":8572,"Name":"Andrés Guacurarí","Nation":"Argentina","Town":"Garupá","Latitude":-27.498611,"Longitude":-55.852222,"Capacity":"15.000"},{"Id":6726,"Name":"Andrův stadión","Nation":"Czech Republic","Town":"Olomouc","Latitude":49.600139617919922,"Longitude":17.248252868652344,"Capacity":"12.541"},{"Id":3671,"Name":"Andrův stadión","Nation":"Czech Republic","Town":"Olomouc","Latitude":49.600139617919922,"Longitude":17.248252868652344,"Capacity":"12.541"},{"Id":3366,"Name":"Andrův stadión","Nation":"Czech Republic","Town":"Olomouc","Latitude":49.600139617919922,"Longitude":17.248252868652344,"Capacity":"12.541"},{"Id":4105,"Name":"Andrův stadión","Nation":"Czech Republic","Town":"Olomouc","Latitude":49.600139617919922,"Longitude":17.248252868652344,"Capacity":"12.541"},{"Id":7043,"Name":"Anexo Estadio de Gran Canaria","Nation":"Spain","Town":"Las Palmas de Gran Canaria","Latitude":28.102569580078125,"Longitude":-15.4552640914917,"Capacity":"500"},{"Id":7044,"Name":"Anexos José Zorrilla","Nation":"Spain","Town":"Valladolid","Latitude":41.644046783447266,"Longitude":-4.76304292678833,"Capacity":"1.500"},{"Id":7940,"Name":"ANFA Complex","Nation":"World","Town":"Lalitpur","Latitude":0.0,"Longitude":0.0,"Capacity":"4.000"},{"Id":3523,"Name":"Anfield","Nation":"England","Town":"Liverpool","Latitude":53.430820465087891,"Longitude":-2.9608368873596191,"Capacity":"54.074"},{"Id":5981,"Name":"Anfield","Nation":"England","Town":"Liverpool","Latitude":53.430820465087891,"Longitude":-2.9608368873596191,"Capacity":"54.074"},{"Id":5921,"Name":"Anfield","Nation":"England","Town":"Liverpool","Latitude":53.430820465087891,"Longitude":-2.9608368873596191,"Capacity":"54.074"},{"Id":5706,"Name":"Anfield","Nation":"England","Town":"Liverpool","Latitude":53.430820465087891,"Longitude":-2.9608368873596191,"Capacity":"54.074"},{"Id":6077,"Name":"Angelo Massimino","Nation":"Italy","Town":"Catania","Latitude":37.5157356262207,"Longitude":15.071589469909668,"Capacity":"23.420"},{"Id":6163,"Name":"Angelo Massimino","Nation":"Italy","Town":"Catania","Latitude":37.5157356262207,"Longitude":15.071589469909668,"Capacity":"23.420"},{"Id":6183,"Name":"Angelo Massimino","Nation":"Italy","Town":"Catania","Latitude":37.5157356262207,"Longitude":15.071589469909668,"Capacity":"23.420"},{"Id":6750,"Name":"Anghel Iordănescu","Nation":"Romania","Town":"Voluntari","Latitude":0.0,"Longitude":0.0,"Capacity":"4.600"},{"Id":6990,"Name":"Anoeta","Nation":"Spain","Town":"San Sebastián","Latitude":43.301368713378906,"Longitude":-1.9735721349716187,"Capacity":"32.076"},{"Id":6946,"Name":"Anoeta","Nation":"Spain","Town":"San Sebastián","Latitude":43.301368713378906,"Longitude":-1.9735721349716187,"Capacity":"32.076"},{"Id":7374,"Name":"Antakya Atatürk Stadyumu","Nation":"Turkey","Town":"Antakya","Latitude":0.0,"Longitude":0.0,"Capacity":"6.150"},{"Id":7375,"Name":"Antalya Arena","Nation":"Turkey","Town":"Antalya","Latitude":36.888271331787109,"Longitude":30.668519973754883,"Capacity":"32.537"},{"Id":7330,"Name":"Antalya Arena","Nation":"Turkey","Town":"Antalya","Latitude":36.888271331787109,"Longitude":30.668519973754883,"Capacity":"32.537"},{"Id":6256,"Name":"Antistadio Adriano Flacco","Nation":"Italy","Town":"Pescara","Latitude":0.0,"Longitude":0.0,"Capacity":"???"},{"Id":3557,"Name":"Anton Malatinsky","Nation":"Slovakia","Town":"Trnava","Latitude":48.37359619140625,"Longitude":17.591728210449219,"Capacity":"18.448"},{"Id":3821,"Name":"Anton Malatinsky","Nation":"Slovakia","Town":"Trnava","Latitude":48.37359619140625,"Longitude":17.591728210449219,"Capacity":"18.448"},{"Id":3611,"Name":"Anton Malatinsky","Nation":"Slovakia","Town":"Trnava","Latitude":48.37359619140625,"Longitude":17.591728210449219,"Capacity":"18.448"},{"Id":3367,"Name":"Anton Malatinsky","Nation":"Slovakia","Town":"Trnava","Latitude":48.37359619140625,"Longitude":17.591728210449219,"Capacity":"18.448"},{"Id":3467,"Name":"Anton Malatinsky","Nation":"Slovakia","Town":"Trnava","Latitude":48.37359619140625,"Longitude":17.591728210449219,"Capacity":"18.448"},{"Id":3672,"Name":"Anton Malatinsky","Nation":"Slovakia","Town":"Trnava","Latitude":48.37359619140625,"Longitude":17.591728210449219,"Capacity":"18.448"},{"Id":8645,"Name":"Antonio Aranda","Nation":"Paraguay","Town":"Ciudad del Este","Latitude":-25.526943206787109,"Longitude":-54.611942291259766,"Capacity":"28.000"},{"Id":6663,"Name":"António Coimbra da Mota","Nation":"Portugal","Town":"Estoril","Latitude":38.715847015380859,"Longitude":-9.4064130783081055,"Capacity":"18.000"},{"Id":6644,"Name":"António Coimbra da Mota","Nation":"Portugal","Town":"Estoril","Latitude":38.715847015380859,"Longitude":-9.4064130783081055,"Capacity":"18.000"},{"Id":6700,"Name":"António Coimbra da Mota","Nation":"Portugal","Town":"Estoril","Latitude":38.715847015380859,"Longitude":-9.4064130783081055,"Capacity":"18.000"},{"Id":7085,"Name":"Antonio Puchades","Nation":"Spain","Town":"Paterna","Latitude":39.543075561523438,"Longitude":-0.454584002494812,"Capacity":"3.000"},{"Id":4106,"Name":"Antonio Puchades","Nation":"Spain","Town":"Paterna","Latitude":39.543075561523438,"Longitude":-0.454584002494812,"Capacity":"3.000"},{"Id":3673,"Name":"Antonis Papadopoulos","Nation":"Cyprus","Town":"Larnaca","Latitude":34.9373893737793,"Longitude":33.620883941650391,"Capacity":"10.000"},{"Id":8015,"Name":"ANZ Stadium","Nation":"Australia","Town":"Sydney","Latitude":-33.847122192382812,"Longitude":151.06341552734375,"Capacity":"83.500"},{"Id":6775,"Name":"Anzhi Arena","Nation":"Russia","Town":"Kaspiysk","Latitude":42.907901763916016,"Longitude":47.618587493896484,"Capacity":"30.000"},{"Id":3945,"Name":"AOK Stadion","Nation":"Germany","Town":"Wolfsburg","Latitude":52.434577941894531,"Longitude":10.807511329650879,"Capacity":"5.200"},{"Id":5309,"Name":"AOK Stadion","Nation":"Germany","Town":"Wolfsburg","Latitude":52.434577941894531,"Longitude":10.807511329650879,"Capacity":"5.200"},{"Id":5348,"Name":"AOK Stadion","Nation":"Germany","Town":"Wolfsburg","Latitude":52.434577941894531,"Longitude":10.807511329650879,"Capacity":"5.200"},{"Id":5447,"Name":"AOK Stadion","Nation":"Germany","Town":"Wolfsburg","Latitude":52.434577941894531,"Longitude":10.807511329650879,"Capacity":"5.200"},{"Id":4805,"Name":"AOK Stadion","Nation":"Germany","Town":"Wolfsburg","Latitude":52.434577941894531,"Longitude":10.807511329650879,"Capacity":"5.200"},{"Id":5425,"Name":"Apollinarisstadion","Nation":"Germany","Town":"Bad Neuenahr-Ahrweiler","Latitude":50.54351806640625,"Longitude":7.1512198448181152,"Capacity":"4.558"},{"Id":5635,"Name":"Apostolos Nikolaidis","Nation":"Greece","Town":"Athen","Latitude":37.987232208251953,"Longitude":23.754131317138672,"Capacity":"16.620"},{"Id":8369,"Name":"Arab Contractors Stadium","Nation":"Egypt","Town":"Cairo","Latitude":30.051166534423828,"Longitude":31.297000885009766,"Capacity":"35.000"},{"Id":6346,"Name":"Åråsen Stadion","Nation":"Norway","Town":"Lillestrøm","Latitude":59.962795257568359,"Longitude":11.063554763793945,"Capacity":"12.500"},{"Id":3946,"Name":"Åråsen Stadion","Nation":"Norway","Town":"Lillestrøm","Latitude":59.962795257568359,"Longitude":11.063554763793945,"Capacity":"12.500"},{"Id":3674,"Name":"Åråsen Stadion","Nation":"Norway","Town":"Lillestrøm","Latitude":59.962795257568359,"Longitude":11.063554763793945,"Capacity":"12.500"},{"Id":6078,"Name":"Arechi","Nation":"Italy","Town":"Salerno","Latitude":40.645561218261719,"Longitude":14.82382869720459,"Capacity":"37.245"},{"Id":6058,"Name":"Arechi","Nation":"Italy","Town":"Salerno","Latitude":40.645561218261719,"Longitude":14.82382869720459,"Capacity":"37.245"},{"Id":6793,"Name":"Arena Baltika","Nation":"Russia","Town":"Kaliningrad","Latitude":54.697978973388672,"Longitude":20.533956527709961,"Capacity":"35.212"},{"Id":6820,"Name":"Arena Baltika","Nation":"Russia","Town":"Kaliningrad","Latitude":54.697978973388672,"Longitude":20.533956527709961,"Capacity":"35.212"},{"Id":3468,"Name":"Arena Baltika","Nation":"Russia","Town":"Kaliningrad","Latitude":54.697978973388672,"Longitude":20.533956527709961,"Capacity":"35.212"},{"Id":5046,"Name":"Arena Bresserberg","Nation":"Germany","Town":"Kleve","Latitude":51.784698486328125,"Longitude":6.1147112846374512,"Capacity":"5.000"},{"Id":8467,"Name":"Arena Condá","Nation":"Brazil","Town":"Chapecó","Latitude":-27.10413932800293,"Longitude":-52.606998443603516,"Capacity":"???"},{"Id":8468,"Name":"Arena Corinthians","Nation":"Brazil","Town":"São Paulo","Latitude":-23.545530319213867,"Longitude":-46.473373413085938,"Capacity":"63.267"},{"Id":8417,"Name":"Arena Corinthians","Nation":"Brazil","Town":"São Paulo","Latitude":-23.545530319213867,"Longitude":-46.473373413085938,"Capacity":"63.267"},{"Id":6776,"Name":"Arena CSKA","Nation":"Russia","Town":"Moskva","Latitude":55.791389465332031,"Longitude":37.516109466552734,"Capacity":"30.000"},{"Id":3524,"Name":"Arena CSKA","Nation":"Russia","Town":"Moskva","Latitude":55.791389465332031,"Longitude":37.516109466552734,"Capacity":"30.000"},{"Id":8425,"Name":"Arena da Baixada","Nation":"Brazil","Town":"Curitiba","Latitude":-25.448286056518555,"Longitude":-49.276954650878906,"Capacity":"41.456"},{"Id":8426,"Name":"Arena do Grêmio","Nation":"Brazil","Town":"Pôrto Alegre","Latitude":-29.973443984985352,"Longitude":-51.194404602050781,"Capacity":"55.662"},{"Id":8418,"Name":"Arena do Grêmio","Nation":"Brazil","Town":"Pôrto Alegre","Latitude":-29.973443984985352,"Longitude":-51.194404602050781,"Capacity":"55.662"},{"Id":8419,"Name":"Arena Fonte Nova","Nation":"Brazil","Town":"Salvador","Latitude":-12.978819847106934,"Longitude":-38.504356384277344,"Capacity":"56.500"},{"Id":8469,"Name":"Arena Fonte Nova","Nation":"Brazil","Town":"Salvador","Latitude":-12.978819847106934,"Longitude":-38.504356384277344,"Capacity":"56.500"},{"Id":6079,"Name":"Arena Garibaldi (Romeo Anconetani)","Nation":"Italy","Town":"Pisa","Latitude":43.725315093994141,"Longitude":10.399994850158691,"Capacity":"16.173"},{"Id":6184,"Name":"Arena Garibaldi (Romeo Anconetani)","Nation":"Italy","Town":"Pisa","Latitude":43.725315093994141,"Longitude":10.399994850158691,"Capacity":"16.173"},{"Id":6127,"Name":"Arena Garibaldi (Romeo Anconetani)","Nation":"Italy","Town":"Pisa","Latitude":43.725315093994141,"Longitude":10.399994850158691,"Capacity":"16.173"},{"Id":6211,"Name":"Arena Garibaldi (Romeo Anconetani)","Nation":"Italy","Town":"Pisa","Latitude":43.725315093994141,"Longitude":10.399994850158691,"Capacity":"16.173"},{"Id":6777,"Name":"Arena Khimki","Nation":"Russia","Town":"Khimki","Latitude":55.885353088378906,"Longitude":37.454349517822266,"Capacity":"18.636"},{"Id":6794,"Name":"Arena Khimki","Nation":"Russia","Town":"Khimki","Latitude":55.885353088378906,"Longitude":37.454349517822266,"Capacity":"18.636"},{"Id":6821,"Name":"Arena Khimki","Nation":"Russia","Town":"Khimki","Latitude":55.885353088378906,"Longitude":37.454349517822266,"Capacity":"18.636"},{"Id":3368,"Name":"Arena Kombëtare","Nation":"Albania","Town":"Tiranë","Latitude":41.318386077880859,"Longitude":19.823915481567383,"Capacity":"22.300"},{"Id":3369,"Name":"Arena Lviv","Nation":"Ukraine","Town":"Lviv","Latitude":49.77484130859375,"Longitude":24.027721405029297,"Capacity":"34.915"},{"Id":3469,"Name":"Arena Lviv","Nation":"Ukraine","Town":"Lviv","Latitude":49.77484130859375,"Longitude":24.027721405029297,"Capacity":"34.915"},{"Id":3486,"Name":"Arena Națională","Nation":"Romania","Town":"Bucuresti","Latitude":44.43719482421875,"Longitude":26.1524715423584,"Capacity":"55.611"},{"Id":3675,"Name":"Arena Națională","Nation":"Romania","Town":"Bucuresti","Latitude":44.43719482421875,"Longitude":26.1524715423584,"Capacity":"55.611"},{"Id":6744,"Name":"Arena Națională","Nation":"Romania","Town":"Bucuresti","Latitude":44.43719482421875,"Longitude":26.1524715423584,"Capacity":"55.611"},{"Id":5247,"Name":"Arena Oldenburger Münsterland","Nation":"Germany","Town":"Cloppenburg","Latitude":52.852592468261719,"Longitude":8.03873062133789,"Capacity":"5.001"},{"Id":4617,"Name":"Armand Cesari","Nation":"France","Town":"Bastia","Latitude":42.651416778564453,"Longitude":9.4426631927490234,"Capacity":"17.000"},{"Id":4618,"Name":"Armand Chouffet","Nation":"France","Town":"Villefranche-sur-Saône","Latitude":0.0,"Longitude":0.0,"Capacity":"???"},{"Id":4339,"Name":"Armand Melis Stadion","Nation":"Belgium","Town":"Dessel","Latitude":0.0,"Longitude":0.0,"Capacity":"4.291"},{"Id":6203,"Name":"Armando Picchi","Nation":"Italy","Town":"Livorno","Latitude":43.5266227722168,"Longitude":10.31438159942627,"Capacity":"18.200"},{"Id":6080,"Name":"Armando Picchi","Nation":"Italy","Town":"Livorno","Latitude":43.5266227722168,"Longitude":10.31438159942627,"Capacity":"18.200"},{"Id":6059,"Name":"Armando Picchi","Nation":"Italy","Town":"Livorno","Latitude":43.5266227722168,"Longitude":10.31438159942627,"Capacity":"18.200"},{"Id":8168,"Name":"Arnos Vale Playing Ground","Nation":"World","Town":"Kingstown","Latitude":13.141885757446289,"Longitude":-61.2118034362793,"Capacity":"18.000"},{"Id":6778,"Name":"Arsenal","Nation":"Russia","Town":"Tula","Latitude":54.174564361572266,"Longitude":37.602592468261719,"Capacity":"20.048"},{"Id":6008,"Name":"Arsenal Training Centre","Nation":"England","Town":"London Colney","Latitude":51.710384368896484,"Longitude":-0.28687599301338196,"Capacity":"???"},{"Id":8646,"Name":"Arsenio Erico","Nation":"Paraguay","Town":"Asunción","Latitude":0.0,"Longitude":0.0,"Capacity":"4.000"},{"Id":4051,"Name":"Arslan Zeki Demirci Spor Kompleksi 1","Nation":"Turkey","Town":"Manavgat","Latitude":36.810066223144531,"Longitude":31.359594345092773,"Capacity":"???"},{"Id":3994,"Name":"Arslan Zeki Demirci Spor Kompleksi 1","Nation":"Turkey","Town":"Manavgat","Latitude":36.810066223144531,"Longitude":31.359594345092773,"Capacity":"???"},{"Id":4052,"Name":"Arslan Zeki Demirci Spor Kompleksi 2","Nation":"Turkey","Town":"Manavgat","Latitude":0.0,"Longitude":0.0,"Capacity":"???"},{"Id":3947,"Name":"Artemio Franchi","Nation":"Italy","Town":"Firenze","Latitude":43.780776977539062,"Longitude":11.282711982727051,"Capacity":"47.284"},{"Id":6041,"Name":"Artemio Franchi","Nation":"Italy","Town":"Firenze","Latitude":43.780776977539062,"Longitude":11.282711982727051,"Capacity":"47.284"},{"Id":6081,"Name":"Artemio Franchi","Nation":"Italy","Town":"Siena","Latitude":43.321731567382812,"Longitude":11.326260566711426,"Capacity":"13.500"},{"Id":6082,"Name":"Artemio Franchi","Nation":"Italy","Town":"Firenze","Latitude":43.780776977539062,"Longitude":11.282711982727051,"Capacity":"47.284"},{"Id":6128,"Name":"Artemio Franchi","Nation":"Italy","Town":"Siena","Latitude":43.321731567382812,"Longitude":11.326260566711426,"Capacity":"13.500"},{"Id":6185,"Name":"Artemio Franchi","Nation":"Italy","Town":"Siena","Latitude":43.321731567382812,"Longitude":11.326260566711426,"Capacity":"13.500"},{"Id":6310,"Name":"Arvi Futbolo Arena","Nation":"Lithuania","Town":"Marijampólè","Latitude":0.0,"Longitude":0.0,"Capacity":"2.500"},{"Id":5922,"Name":"Ashton Gate","Nation":"England","Town":"Bristol","Latitude":51.440120697021484,"Longitude":-2.6202754974365234,"Capacity":"27.000"},{"Id":5726,"Name":"Ashton Gate","Nation":"England","Town":"Bristol","Latitude":51.440120697021484,"Longitude":-2.6202754974365234,"Capacity":"27.000"},{"Id":5824,"Name":"Ashton Gate","Nation":"England","Town":"Bristol","Latitude":51.440120697021484,"Longitude":-2.6202754974365234,"Capacity":"27.000"},{"Id":3948,"Name":"Asim Ferhatović Hase","Nation":"Bosnia and Herzegovina","Town":"Sarajevo","Latitude":43.873760223388672,"Longitude":18.408622741699219,"Capacity":"35.630"},{"Id":3676,"Name":"Asim Ferhatović Hase","Nation":"Bosnia and Herzegovina","Town":"Sarajevo","Latitude":43.873760223388672,"Longitude":18.408622741699219,"Capacity":"35.630"},{"Id":6347,"Name":"Aspmyra Stadion","Nation":"Norway","Town":"Bodø","Latitude":67.27667236328125,"Longitude":14.384365081787109,"Capacity":"7.354"},{"Id":3677,"Name":"Astana Arena","Nation":"Kazakhstan","Town":"Astana","Latitude":0.0,"Longitude":0.0,"Capacity":"30.000"},{"Id":3505,"Name":"Astana Arena","Nation":"Kazakhstan","Town":"Astana","Latitude":0.0,"Longitude":0.0,"Capacity":"30.000"},{"Id":3370,"Name":"Astana Arena","Nation":"Kazakhstan","Town":"Astana","Latitude":0.0,"Longitude":0.0,"Capacity":"30.000"},{"Id":3558,"Name":"Astana Arena","Nation":"Kazakhstan","Town":"Astana","Latitude":0.0,"Longitude":0.0,"Capacity":"30.000"},{"Id":3612,"Name":"Astana Arena","Nation":"Kazakhstan","Town":"Astana","Latitude":0.0,"Longitude":0.0,"Capacity":"30.000"},{"Id":4107,"Name":"Astana Arena","Nation":"Kazakhstan","Town":"Astana","Latitude":0.0,"Longitude":0.0,"Capacity":"30.000"},{"Id":8370,"Name":"Aswan Stadium","Nation":"Egypt","Town":"Aswan","Latitude":24.0661678314209,"Longitude":32.884471893310547,"Capacity":"20.000"},{"Id":8427,"Name":"Atanasio Girardot","Nation":"Colombia","Town":"Medellín","Latitude":6.2567939758300781,"Longitude":-75.590179443359375,"Capacity":"53.335"},{"Id":8605,"Name":"Atanasio Girardot","Nation":"Colombia","Town":"Medellín","Latitude":6.2567939758300781,"Longitude":-75.590179443359375,"Capacity":"53.335"},{"Id":7350,"Name":"Atatürk","Nation":"Turkey","Town":"Giresun","Latitude":40.909820556640625,"Longitude":38.371944427490234,"Capacity":"12.191"},{"Id":7351,"Name":"Atatürk","Nation":"Turkey","Town":"Bolu","Latitude":40.736179351806641,"Longitude":31.606985092163086,"Capacity":"8.881"},{"Id":7352,"Name":"Atatürk","Nation":"Turkey","Town":"Denizli","Latitude":37.765945434570312,"Longitude":29.0824031829834,"Capacity":"15.459"},{"Id":7353,"Name":"Atatürk","Nation":"Turkey","Town":"Izmir","Latitude":38.434860229492188,"Longitude":27.178260803222656,"Capacity":"57.500"},{"Id":7376,"Name":"Atatürk","Nation":"Turkey","Town":"Izmir","Latitude":38.434860229492188,"Longitude":27.178260803222656,"Capacity":"57.500"},{"Id":7377,"Name":"Atatürk","Nation":"Turkey","Town":"Giresun","Latitude":40.909820556640625,"Longitude":38.371944427490234,"Capacity":"12.191"},{"Id":7378,"Name":"Atatürk","Nation":"Turkey","Town":"Bolu","Latitude":40.736179351806641,"Longitude":31.606985092163086,"Capacity":"8.881"},{"Id":7379,"Name":"Atatürk Olimpiyat","Nation":"Turkey","Town":"Istanbul","Latitude":41.0744514465332,"Longitude":28.765480041503906,"Capacity":"76.092"},{"Id":7380,"Name":"Atatürk Şehir Stadyumu","Nation":"Turkey","Town":"Van","Latitude":0.0,"Longitude":0.0,"Capacity":"11.500"},{"Id":8380,"Name":"Athlone Stadium","Nation":"South Africa","Town":"Capetown","Latitude":-33.961879730224609,"Longitude":18.5173282623291,"Capacity":"25.000"},{"Id":6186,"Name":"Atleti Azzurri d'Italia","Nation":"Italy","Town":"Bergamo","Latitude":45.709129333496094,"Longitude":9.6808223724365234,"Capacity":"26.562"},{"Id":6143,"Name":"Atleti Azzurri d'Italia","Nation":"Italy","Town":"Bergamo","Latitude":45.709129333496094,"Longitude":9.6808223724365234,"Capacity":"26.562"},{"Id":6083,"Name":"Atleti Azzurri d'Italia","Nation":"Italy","Town":"Bergamo","Latitude":45.709129333496094,"Longitude":9.6808223724365234,"Capacity":"26.562"},{"Id":6042,"Name":"Atleti Azzurri d'Italia","Nation":"Italy","Town":"Bergamo","Latitude":45.709129333496094,"Longitude":9.6808223724365234,"Capacity":"26.562"},{"Id":4408,"Name":"Atletikstadion","Nation":"Denmark","Town":"Esbjerg","Latitude":0.0,"Longitude":0.0,"Capacity":"15.000"},{"Id":4444,"Name":"Atletikstadion","Nation":"Denmark","Town":"Esbjerg","Latitude":0.0,"Longitude":0.0,"Capacity":"15.000"},{"Id":4900,"Name":"ATSV-Sportanlage","Nation":"Germany","Town":"Erlangen","Latitude":49.578388214111328,"Longitude":10.998559951782227,"Capacity":"???"},{"Id":8283,"Name":"Audi Field","Nation":"USA","Town":"Washington, D.C.","Latitude":38.868331909179688,"Longitude":-77.012222290039062,"Capacity":"20.000"},{"Id":4716,"Name":"Audi Sportpark","Nation":"Germany","Town":"Ingolstadt","Latitude":48.745513916015625,"Longitude":11.485445022583008,"Capacity":"15.800"},{"Id":5426,"Name":"Audi Sportpark","Nation":"Germany","Town":"Ingolstadt","Latitude":48.745513916015625,"Longitude":11.485445022583008,"Capacity":"15.800"},{"Id":5609,"Name":"Audi Sportpark Nebenplätze","Nation":"Germany","Town":"Ingolstadt","Latitude":0.74639302492141724,"Longitude":11.488142013549805,"Capacity":"???"},{"Id":5501,"Name":"Audi Sportpark Nebenplätze","Nation":"Germany","Town":"Ingolstadt","Latitude":0.74639302492141724,"Longitude":11.488142013549805,"Capacity":"???"},{"Id":4956,"Name":"Auestadion","Nation":"Germany","Town":"Kassel","Latitude":51.298725128173828,"Longitude":9.484044075012207,"Capacity":"19.000"},{"Id":5226,"Name":"Auestadion","Nation":"Germany","Town":"Kassel","Latitude":51.298725128173828,"Longitude":9.484044075012207,"Capacity":"19.000"},{"Id":5448,"Name":"August-Bier-Sportanlage","Nation":"Germany","Town":"Berlin","Latitude":52.518497467041016,"Longitude":13.235214233398438,"Capacity":"???"},{"Id":5449,"Name":"August-Bier-Sportanlage Kunstrasenplätze","Nation":"Germany","Town":"Berlin","Latitude":52.5191764831543,"Longitude":13.237421035766602,"Capacity":"1.000"},{"Id":5556,"Name":"August-Bier-Sportanlage Kunstrasenplätze","Nation":"Germany","Town":"Berlin","Latitude":52.5191764831543,"Longitude":13.237421035766602,"Capacity":"1.000"},{"Id":4597,"Name":"Auguste Bonal","Nation":"France","Town":"Sochaux","Latitude":47.512458801269531,"Longitude":6.8111963272094727,"Capacity":"20.000"},{"Id":4667,"Name":"Auguste Bonal","Nation":"France","Town":"Sochaux","Latitude":47.512458801269531,"Longitude":6.8111963272094727,"Capacity":"20.000"},{"Id":4668,"Name":"Auguste Delaune","Nation":"France","Town":"Reims","Latitude":49.247146606445312,"Longitude":4.0247349739074707,"Capacity":"21.684"},{"Id":4619,"Name":"Auguste Delaune","Nation":"France","Town":"Reims","Latitude":49.247146606445312,"Longitude":4.0247349739074707,"Capacity":"21.684"},{"Id":4576,"Name":"Auguste Delaune","Nation":"France","Town":"Reims","Latitude":49.247146606445312,"Longitude":4.0247349739074707,"Capacity":"21.684"},{"Id":5209,"Name":"August-Thyssen-Stadion","Nation":"Germany","Town":"Duisburg","Latitude":0.0,"Longitude":0.0,"Capacity":"25.000"},{"Id":3852,"Name":"Aukstaitija","Nation":"Lithuania","Town":"Panevezys","Latitude":55.739112854003906,"Longitude":24.359428405761719,"Capacity":"10.000"},{"Id":3886,"Name":"Aukstaitija","Nation":"Lithuania","Town":"Panevezys","Latitude":55.739112854003906,"Longitude":24.359428405761719,"Capacity":"10.000"},{"Id":5285,"Name":"Auto-Senger-Stadion","Nation":"Germany","Town":"Rheine","Latitude":52.294624328613281,"Longitude":7.431910514831543,"Capacity":"3.000"},{"Id":8306,"Name":"AutoZone Park","Nation":"USA","Town":"Memphis, TN","Latitude":35.143635,"Longitude":-90.050082,"Capacity":"10000"},{"Id":6795,"Name":"Avangard","Nation":"Russia","Town":"Domodedovo","Latitude":0.0,"Longitude":0.0,"Capacity":"6.000"},{"Id":8284,"Name":"Avaya Stadium","Nation":"USA","Town":"San Jose, CA","Latitude":37.351211547851562,"Longitude":-121.92460632324219,"Capacity":"18.000"},{"Id":4457,"Name":"Avedøre Stadion Kunstgræs","Nation":"Denmark","Town":"Hvidovre","Latitude":0.0,"Longitude":0.0,"Capacity":"???"},{"Id":4422,"Name":"Avedøre Stadion Kunstgræs","Nation":"Denmark","Town":"Hvidovre","Latitude":0.0,"Longitude":0.0,"Capacity":"???"},{"Id":4053,"Name":"Aveiro Municipal","Nation":"Portugal","Town":"Aveiro","Latitude":40.647857666015625,"Longitude":-8.59386920928955,"Capacity":"30.000"},{"Id":6723,"Name":"Aveiro Municipal","Nation":"Portugal","Town":"Aveiro","Latitude":40.647857666015625,"Longitude":-8.59386920928955,"Capacity":"30.000"},{"Id":6645,"Name":"Aveiro Municipal","Nation":"Portugal","Town":"Aveiro","Latitude":40.647857666015625,"Longitude":-8.59386920928955,"Capacity":"30.000"},{"Id":3371,"Name":"Aviva Stadium","Nation":"Ireland","Town":"Dublin","Latitude":53.335140228271484,"Longitude":-6.2283329963684082,"Capacity":"50.000"},{"Id":3470,"Name":"Aviva Stadium","Nation":"Ireland","Town":"Dublin","Latitude":53.335140228271484,"Longitude":-6.2283329963684082,"Capacity":"50.000"},{"Id":7986,"Name":"Azadi Sports Stadium","Nation":"Iran","Town":"Tehran","Latitude":35.724395751953125,"Longitude":51.275539398193359,"Capacity":"90.000"},{"Id":8236,"Name":"Azteca","Nation":"Mexico","Town":"México, D.F.","Latitude":19.302825927734375,"Longitude":-99.150390625,"Capacity":"114.465"},{"Id":8213,"Name":"Azteca","Nation":"Mexico","Town":"México, D.F.","Latitude":19.302825927734375,"Longitude":-99.150390625,"Capacity":"114.465"},{"Id":7163,"Name":"Backavallen Motionscentrum","Nation":"Sweden","Town":"Göteburg","Latitude":0.0,"Longitude":0.0,"Capacity":"3.000"},{"Id":7381,"Name":"Bahçeşehir Okulları Stadyumu","Nation":"Turkey","Town":"Alanya","Latitude":36.562637329101562,"Longitude":32.079143524169922,"Capacity":"10.842"},{"Id":7331,"Name":"Bahçeşehir Okulları Stadyumu","Nation":"Turkey","Town":"Alanya","Latitude":36.562637329101562,"Longitude":32.079143524169922,"Capacity":"10.842"},{"Id":3372,"Name":"Bakcell Arena","Nation":"Azerbaijan","Town":"Baku","Latitude":40.400161743164062,"Longitude":49.944019317626953,"Capacity":"11.000"},{"Id":3373,"Name":"Baku National Stadium","Nation":"Azerbaijan","Town":"Baku","Latitude":40.429836273193359,"Longitude":49.922389984130859,"Capacity":"68.700"},{"Id":3506,"Name":"Baku National Stadium","Nation":"Azerbaijan","Town":"Baku","Latitude":40.429836273193359,"Longitude":49.922389984130859,"Capacity":"68.700"},{"Id":3613,"Name":"Baku National Stadium","Nation":"Azerbaijan","Town":"Baku","Latitude":40.429836273193359,"Longitude":49.922389984130859,"Capacity":"68.700"},{"Id":7382,"Name":"Balikesir Atatürk","Nation":"Turkey","Town":"Balıkesir","Latitude":39.641544342041016,"Longitude":27.8876895904541,"Capacity":"15.800"},{"Id":7354,"Name":"Balikesir Atatürk","Nation":"Turkey","Town":"Balıkesir","Latitude":39.641544342041016,"Longitude":27.8876895904541,"Capacity":"15.800"},{"Id":7941,"Name":"Balkanabat Stadiony","Nation":"Turkmenistan","Town":"Balkanabat","Latitude":0.0,"Longitude":0.0,"Capacity":"10.000"},{"Id":7045,"Name":"Baltasar Pujales","Nation":"Spain","Town":"Vigo","Latitude":42.226783752441406,"Longitude":-8.75570011138916,"Capacity":"1.500"},{"Id":3678,"Name":"Banants Stadium","Nation":"Armenia","Town":"Yerevan","Latitude":40.171424865722656,"Longitude":44.4499397277832,"Capacity":"6.000"},{"Id":8152,"Name":"Banc of California Stadium","Nation":"USA","Town":"Los Angeles, CA","Latitude":34.012989044189453,"Longitude":-118.28460693359375,"Capacity":"22.000"},{"Id":8285,"Name":"Banc of California Stadium","Nation":"USA","Town":"Los Angeles, CA","Latitude":34.012989044189453,"Longitude":-118.28460693359375,"Capacity":"22.000"},{"Id":7383,"Name":"Bandirma 17 Eylül","Nation":"Turkey","Town":"Balıkesir","Latitude":0.0,"Longitude":0.0,"Capacity":"5.400"},{"Id":4445,"Name":"Banerne ved Haderslev Idrætscenter","Nation":"Denmark","Town":"Haderslev","Latitude":55.263698577880859,"Longitude":9.49036693572998,"Capacity":"???"},{"Id":4409,"Name":"Banerne ved Haderslev Idrætscenter","Nation":"Denmark","Town":"Haderslev","Latitude":55.263698577880859,"Longitude":9.49036693572998,"Capacity":"???"},{"Id":7942,"Name":"Bangabandhu National Stadium","Nation":"Bangladesh","Town":"Dhaka","Latitude":23.727849960327148,"Longitude":90.413566589355469,"Capacity":"36.000"},{"Id":8153,"Name":"Bank of America Stadium","Nation":"USA","Town":"Charlotte, NC","Latitude":35.225830078125,"Longitude":-80.852828979492188,"Capacity":"73.778"},{"Id":5825,"Name":"Banks’s Stadium","Nation":"England","Town":"Walsall","Latitude":52.565383911132812,"Longitude":-1.9904203414916992,"Capacity":"11.300"},{"Id":5923,"Name":"Banks’s Stadium","Nation":"England","Town":"Walsall","Latitude":52.565383911132812,"Longitude":-1.9904203414916992,"Capacity":"11.300"},{"Id":5751,"Name":"Banks’s Stadium","Nation":"England","Town":"Walsall","Latitude":52.565383911132812,"Longitude":-1.9904203414916992,"Capacity":"11.300"},{"Id":8105,"Name":"Barabati Stadium","Nation":"India","Town":"Cuttack","Latitude":20.480949401855469,"Longitude":85.868576049804688,"Capacity":"45.000"},{"Id":4977,"Name":"Barne-Arena","Nation":"Germany","Town":"Wunstorf","Latitude":52.411106109619141,"Longitude":9.4344673156738281,"Capacity":"2.000"},{"Id":8118,"Name":"Batakan Stadium","Nation":"Indonesia","Town":"Balikpapan","Latitude":-1.232682,"Longitude":116.943303,"Capacity":"40.000"},{"Id":7384,"Name":"Batman Yeni Şehir Stadı","Nation":"Turkey","Town":"Batman","Latitude":0.0,"Longitude":0.0,"Capacity":"15.000"},{"Id":4920,"Name":"Baumit Arena","Nation":"Germany","Town":"Sonthofen","Latitude":47.503684997558594,"Longitude":10.276279449462891,"Capacity":"6.000"},{"Id":8535,"Name":"Bautista Gargantini","Nation":"Argentina","Town":"Mendoza","Latitude":-32.890785217285156,"Longitude":-68.862777709960938,"Capacity":"24.000"},{"Id":8169,"Name":"Bayamón FC Soccer Complex","Nation":"World","Town":"Bayamón","Latitude":18.366348266601562,"Longitude":-66.166511535644531,"Capacity":"3.000"},{"Id":4698,"Name":"BayArena","Nation":"Germany","Town":"Leverkusen","Latitude":51.038230895996094,"Longitude":7.0022072792053223,"Capacity":"30.210"},{"Id":3614,"Name":"BayArena","Nation":"Germany","Town":"Leverkusen","Latitude":51.038230895996094,"Longitude":7.0022072792053223,"Capacity":"30.210"},{"Id":6861,"Name":"Bayview Stadium","Nation":"Scotland","Town":"Methil","Latitude":0.0,"Longitude":0.0,"Capacity":"???"},{"Id":6751,"Name":"Baza Sportivă Luceafărul Felix","Nation":"Romania","Town":"Sânmartin","Latitude":0.0,"Longitude":0.0,"Capacity":"2.200"},{"Id":5028,"Name":"BB Bank Sportpark","Nation":"Germany","Town":"Köln","Latitude":50.925098419189453,"Longitude":6.9820480346679688,"Capacity":"2.000"},{"Id":8214,"Name":"BBVA Bancomer","Nation":"Mexico","Town":"Guadalupe","Latitude":25.6701717376709,"Longitude":-100.24369812011719,"Capacity":"53.500"},{"Id":8190,"Name":"BBVA Bancomer","Nation":"Mexico","Town":"Guadalupe","Latitude":25.6701717376709,"Longitude":-100.24369812011719,"Capacity":"53.500"},{"Id":8237,"Name":"BBVA Bancomer","Nation":"Mexico","Town":"Guadalupe","Latitude":25.6701717376709,"Longitude":-100.24369812011719,"Capacity":"53.500"},{"Id":8307,"Name":"BBVA Compass Field","Nation":"USA","Town":"Birmingham, AL","Latitude":33.498617,"Longitude":-86.81264,"Capacity":"5000"},{"Id":8286,"Name":"BBVA Compass Stadium","Nation":"USA","Town":"Houston, TX","Latitude":29.753332138061523,"Longitude":-95.35333251953125,"Capacity":"22.039"},{"Id":8191,"Name":"BBVA Compass Stadium","Nation":"USA","Town":"Houston, TX","Latitude":29.753332138061523,"Longitude":-95.35333251953125,"Capacity":"22.039"},{"Id":8154,"Name":"BBVA Compass Stadium","Nation":"USA","Town":"Houston, TX","Latitude":29.753332138061523,"Longitude":-95.35333251953125,"Capacity":"22.039"},{"Id":8170,"Name":"BC Place","Nation":"Canada","Town":"Vancouver, BC","Latitude":49.276660919189453,"Longitude":-123.11208343505859,"Capacity":"54.500"},{"Id":8287,"Name":"BC Place","Nation":"Canada","Town":"Vancouver, BC","Latitude":49.276660919189453,"Longitude":-123.11208343505859,"Capacity":"54.500"},{"Id":4993,"Name":"Bechtle Stadion","Nation":"Germany","Town":"Karlsbad-Spielberg","Latitude":48.900318145751953,"Longitude":8.4628438949584961,"Capacity":"2.000"},{"Id":6862,"Name":"Beechwood Park","Nation":"Scotland","Town":"Auchinleck","Latitude":0.0,"Longitude":0.0,"Capacity":"4.000"},{"Id":7164,"Name":"Behrn Arena","Nation":"Sweden","Town":"Örebro","Latitude":59.266254425048828,"Longitude":15.223343849182129,"Capacity":"14.500"},{"Id":7132,"Name":"Behrn Arena","Nation":"Sweden","Town":"Örebro","Latitude":59.266254425048828,"Longitude":15.223343849182129,"Capacity":"14.500"},{"Id":7147,"Name":"Behrn Arena","Nation":"Sweden","Town":"Örebro","Latitude":59.266254425048828,"Longitude":15.223343849182129,"Capacity":"14.500"},{"Id":8428,"Name":"Beira-Rio","Nation":"Brazil","Town":"Porto Alegre","Latitude":-30.065582275390625,"Longitude":-51.236183166503906,"Capacity":"58.306"},{"Id":5266,"Name":"Belkaw Arena","Nation":"Germany","Town":"Bergisch Gladbach","Latitude":50.993904113769531,"Longitude":7.1198368072509766,"Capacity":"10.500"},{"Id":8470,"Name":"Bellavista","Nation":"Ecuador","Town":"Ambato","Latitude":-1.2447636127471924,"Longitude":-78.623085021972656,"Capacity":"18.000"},{"Id":8633,"Name":"Bellavista","Nation":"Ecuador","Town":"Ambato","Latitude":-1.2447636127471924,"Longitude":-78.623085021972656,"Capacity":"18.000"},{"Id":3887,"Name":"Belle Vue","Nation":"Wales","Town":"Rhyl","Latitude":53.318901062011719,"Longitude":-3.4760732650756836,"Capacity":"3.800"},{"Id":3995,"Name":"Belle Vue","Nation":"Wales","Town":"Rhyl","Latitude":53.318901062011719,"Longitude":-3.4760732650756836,"Capacity":"3.800"},{"Id":3679,"Name":"Belle Vue","Nation":"Wales","Town":"Rhyl","Latitude":53.318901062011719,"Longitude":-3.4760732650756836,"Capacity":"3.800"},{"Id":6009,"Name":"Belvoir Drive","Nation":"England","Town":"Leicester","Latitude":52.603481292724609,"Longitude":-1.1502079963684082,"Capacity":"???"},{"Id":8402,"Name":"Ben Guerdane","Nation":"Tunisia","Town":"Ben Guerdane","Latitude":33.152774810791016,"Longitude":11.2061128616333,"Capacity":"6.500"},{"Id":6043,"Name":"Benito Stirpe","Nation":"Italy","Town":"Frosinone","Latitude":41.634258270263672,"Longitude":13.321866035461426,"Capacity":"16.125"},{"Id":6947,"Name":"Benito Villamarín","Nation":"Spain","Town":"Sevilla","Latitude":37.356418609619141,"Longitude":-5.9817485809326172,"Capacity":"60.721"},{"Id":6991,"Name":"Benito Villamarín","Nation":"Spain","Town":"Sevilla","Latitude":37.356418609619141,"Longitude":-5.9817485809326172,"Capacity":"60.721"},{"Id":3448,"Name":"Benito Villamarín","Nation":"Spain","Town":"Sevilla","Latitude":37.356418609619141,"Longitude":-5.9817485809326172,"Capacity":"60.721"},{"Id":3615,"Name":"Benito Villamarín","Nation":"Spain","Town":"Sevilla","Latitude":37.356418609619141,"Longitude":-5.9817485809326172,"Capacity":"60.721"},{"Id":4717,"Name":"Benteler Arena","Nation":"Germany","Town":"Paderborn","Latitude":51.7307014465332,"Longitude":8.7110633850097656,"Capacity":"15.000"},{"Id":4755,"Name":"Benteler Arena","Nation":"Germany","Town":"Paderborn","Latitude":51.7307014465332,"Longitude":8.7110633850097656,"Capacity":"15.000"},{"Id":4377,"Name":"Beroe","Nation":"Bulgaria","Town":"Stara Zagora","Latitude":42.4327392578125,"Longitude":25.615304946899414,"Capacity":"11.460"},{"Id":5029,"Name":"Bertram-Möthrath-Stadion","Nation":"Germany","Town":"Düren","Latitude":50.845054626464844,"Longitude":6.4892082214355469,"Capacity":"1.500"},{"Id":5924,"Name":"bet365 Stadium","Nation":"England","Town":"Stoke-on-Trent","Latitude":52.988399505615234,"Longitude":-2.1754269599914551,"Capacity":"30.089"},{"Id":5826,"Name":"bet365 Stadium","Nation":"England","Town":"Stoke-on-Trent","Latitude":52.988399505615234,"Longitude":-2.1754269599914551,"Capacity":"30.089"},{"Id":5727,"Name":"bet365 Stadium","Nation":"England","Town":"Stoke-on-Trent","Latitude":52.988399505615234,"Longitude":-2.1754269599914551,"Capacity":"30.089"},{"Id":5827,"Name":"Beveree Stadium","Nation":"England","Town":"Hampton","Latitude":51.415065765380859,"Longitude":-0.36332699656486511,"Capacity":"???"},{"Id":8381,"Name":"BidVest Stadium","Nation":"South Africa","Town":"Johannesburg","Latitude":-26.186973,"Longitude":28.028392,"Capacity":"???"},{"Id":3949,"Name":"BÏİK","Nation":"Kazakhstan","Town":"Shymkent","Latitude":0.0,"Longitude":0.0,"Capacity":"3.000"},{"Id":3888,"Name":"Bilino Polje","Nation":"Bosnia and Herzegovina","Town":"Zenica","Latitude":44.205757141113281,"Longitude":17.907135009765625,"Capacity":"12.500"},{"Id":3471,"Name":"Bilino Polje","Nation":"Bosnia and Herzegovina","Town":"Zenica","Latitude":44.205757141113281,"Longitude":17.907135009765625,"Capacity":"12.500"},{"Id":3374,"Name":"Bilino Polje","Nation":"Bosnia and Herzegovina","Town":"Zenica","Latitude":44.205757141113281,"Longitude":17.907135009765625,"Capacity":"12.500"},{"Id":4901,"Name":"Bioenergie Arena","Nation":"Germany","Town":"Großbardorf","Latitude":50.265464782714844,"Longitude":10.372550010681152,"Capacity":"3.500"},{"Id":4446,"Name":"BioNutria Park Randers","Nation":"Denmark","Town":"Randers","Latitude":56.465938568115234,"Longitude":10.010261535644531,"Capacity":"12.000"},{"Id":4860,"Name":"BIZERBA-Arena","Nation":"Germany","Town":"Balingen","Latitude":48.281818389892578,"Longitude":8.8583688735961914,"Capacity":"5.000"},{"Id":4261,"Name":"Black Crevice Stadion","Nation":"Austria","Town":"Vöcklamarkt","Latitude":48.003734588623047,"Longitude":13.480363845825195,"Capacity":"2.700"},{"Id":5982,"Name":"Blackburn Rovers Academy","Nation":"England","Town":"Brockhall Village","Latitude":53.820564270019531,"Longitude":-2.4528739452362061,"Capacity":"???"},{"Id":5047,"Name":"BLF Arena Kunstrasenplatz","Nation":"Germany","Town":"Velbert","Latitude":51.343971252441406,"Longitude":7.0319209098815918,"Capacity":"2.000"},{"Id":5925,"Name":"Bloomfield Road","Nation":"England","Town":"Blackpool","Latitude":53.804859161376953,"Longitude":-3.0481429100036621,"Capacity":"16.000"},{"Id":5752,"Name":"Bloomfield Road","Nation":"England","Town":"Blackpool","Latitude":53.804859161376953,"Longitude":-3.0481429100036621,"Capacity":"16.000"},{"Id":5828,"Name":"Bloomfield Road","Nation":"England","Town":"Blackpool","Latitude":53.804859161376953,"Longitude":-3.0481429100036621,"Capacity":"16.000"},{"Id":4399,"Name":"Blue Water Arena","Nation":"Denmark","Town":"Esbjerg","Latitude":55.481983184814453,"Longitude":8.4394102096557617,"Capacity":"18.000"},{"Id":4823,"Name":"bluechip-Arena","Nation":"Germany","Town":"Meuselwitz","Latitude":51.053627014160156,"Longitude":12.283177375793457,"Capacity":"5.260"},{"Id":5829,"Name":"Blundell Park","Nation":"England","Town":"Cleethorpes","Latitude":53.5702018737793,"Longitude":-0.046530961990356445,"Capacity":"10.033"},{"Id":5776,"Name":"Blundell Park","Nation":"England","Town":"Cleethorpes","Latitude":53.5702018737793,"Longitude":-0.046530961990356445,"Capacity":"10.033"},{"Id":5926,"Name":"Blundell Park","Nation":"England","Town":"Cleethorpes","Latitude":53.5702018737793,"Longitude":-0.046530961990356445,"Capacity":"10.033"},{"Id":8288,"Name":"BMO Field","Nation":"Canada","Town":"Toronto, ON","Latitude":43.633205413818359,"Longitude":-79.418571472167969,"Capacity":"40.000"},{"Id":8192,"Name":"BMO Field","Nation":"Canada","Town":"Toronto, ON","Latitude":43.633205413818359,"Longitude":-79.418571472167969,"Capacity":"40.000"},{"Id":8171,"Name":"BMO Field","Nation":"Canada","Town":"Toronto, ON","Latitude":43.633205413818359,"Longitude":-79.418571472167969,"Capacity":"40.000"},{"Id":4308,"Name":"Bodenseestadion","Nation":"Austria","Town":"Bregenz","Latitude":47.503902435302734,"Longitude":9.7334041595458984,"Capacity":"12.000"},{"Id":7385,"Name":"Bodrum İlçe Stadı","Nation":"Turkey","Town":"Bodrum","Latitude":0.0,"Longitude":0.0,"Capacity":"3.000"},{"Id":6010,"Name":"Bodymoor Heath","Nation":"England","Town":"Bodymoor Heath","Latitude":52.572799682617188,"Longitude":-1.720767617225647,"Capacity":"???"},{"Id":5210,"Name":"Bökelbergstadion","Nation":"Germany","Town":"Mönchengladbach","Latitude":51.209083557128906,"Longitude":6.4395527839660645,"Capacity":"34.500"},{"Id":8308,"Name":"Bold Stadium","Nation":"USA","Town":"Austin, TX","Latitude":30.136858,"Longitude":-97.63941,"Capacity":"5.000"},{"Id":6318,"Name":"Bolshaya Sportivnaya Arena","Nation":"Moldova","Town":"Tiraspol","Latitude":46.838325500488281,"Longitude":29.55766487121582,"Capacity":"14.300"},{"Id":3680,"Name":"Bolshaya Sportivnaya Arena","Nation":"Moldova","Town":"Tiraspol","Latitude":46.838325500488281,"Longitude":29.55766487121582,"Capacity":"14.300"},{"Id":3889,"Name":"Bolshaya Sportivnaya Arena","Nation":"Moldova","Town":"Tiraspol","Latitude":46.838325500488281,"Longitude":29.55766487121582,"Capacity":"14.300"},{"Id":3559,"Name":"Bolshaya Sportivnaya Arena","Nation":"Moldova","Town":"Tiraspol","Latitude":46.838325500488281,"Longitude":29.55766487121582,"Capacity":"14.300"},{"Id":4824,"Name":"Bonava-Arena","Nation":"Germany","Town":"Fürstenwalde","Latitude":52.366226196289062,"Longitude":14.034589767456055,"Capacity":"8.000"},{"Id":3890,"Name":"Borås Arena","Nation":"Sweden","Town":"Borås","Latitude":57.734401702880859,"Longitude":12.934727668762207,"Capacity":"17.800"},{"Id":4108,"Name":"Borås Arena","Nation":"Sweden","Town":"Borås","Latitude":57.734401702880859,"Longitude":12.934727668762207,"Capacity":"17.800"},{"Id":7148,"Name":"Borås Arena","Nation":"Sweden","Town":"Borås","Latitude":57.734401702880859,"Longitude":12.934727668762207,"Capacity":"17.800"},{"Id":7133,"Name":"Borås Arena","Nation":"Sweden","Town":"Borås","Latitude":57.734401702880859,"Longitude":12.934727668762207,"Capacity":"17.800"},{"Id":7165,"Name":"Borås Arena","Nation":"Sweden","Town":"Borås","Latitude":57.734401702880859,"Longitude":12.934727668762207,"Capacity":"17.800"},{"Id":8371,"Name":"Border Guard Stadium","Nation":"Egypt","Town":"Alexandria","Latitude":31.150936126708984,"Longitude":29.848453521728516,"Capacity":"22.000"},{"Id":8372,"Name":"Borg El Arab Stadium","Nation":"Egypt","Town":"Alexandria","Latitude":30.9993896484375,"Longitude":29.729436874389648,"Capacity":"86.000"},{"Id":3681,"Name":"Boris Paichadze","Nation":"Georgia","Town":"Tbilisi","Latitude":41.723018646240234,"Longitude":44.789764404296875,"Capacity":"55.600"},{"Id":3375,"Name":"Boris Paichadze","Nation":"Georgia","Town":"Tbilisi","Latitude":41.723018646240234,"Longitude":44.789764404296875,"Capacity":"55.600"},{"Id":3507,"Name":"Boris Paichadze","Nation":"Georgia","Town":"Tbilisi","Latitude":41.723018646240234,"Longitude":44.789764404296875,"Capacity":"55.600"},{"Id":3376,"Name":"Borisov Arena","Nation":"Belarus","Town":"Borisov","Latitude":54.19305419921875,"Longitude":28.475278854370117,"Capacity":"13.126"},{"Id":3560,"Name":"Borisov Arena","Nation":"Belarus","Town":"Borisov","Latitude":54.19305419921875,"Longitude":28.475278854370117,"Capacity":"13.126"},{"Id":3616,"Name":"Borisov Arena","Nation":"Belarus","Town":"Borisov","Latitude":54.19305419921875,"Longitude":28.475278854370117,"Capacity":"13.126"},{"Id":4360,"Name":"Borisov Arena","Nation":"Belarus","Town":"Borisov","Latitude":54.19305419921875,"Longitude":28.475278854370117,"Capacity":"13.126"},{"Id":4109,"Name":"Bornova Doğanlar Stadı","Nation":"Turkey","Town":"Izmir","Latitude":38.447086334228516,"Longitude":27.2623291015625,"Capacity":"12.500"},{"Id":7355,"Name":"Bornova Doğanlar Stadı","Nation":"Turkey","Town":"Izmir","Latitude":38.447086334228516,"Longitude":27.2623291015625,"Capacity":"12.500"},{"Id":7386,"Name":"Bornova Doğanlar Stadı","Nation":"Turkey","Town":"Izmir","Latitude":38.447086334228516,"Longitude":27.2623291015625,"Capacity":"12.500"},{"Id":7332,"Name":"Bornova Doğanlar Stadı","Nation":"Turkey","Town":"Izmir","Latitude":38.447086334228516,"Longitude":27.2623291015625,"Capacity":"12.500"},{"Id":5799,"Name":"Borough Sports Ground","Nation":"England","Town":"Sutton","Latitude":0.0,"Longitude":0.0,"Capacity":"7.032"},{"Id":5830,"Name":"Borough Sports Ground","Nation":"England","Town":"Sutton","Latitude":0.0,"Longitude":0.0,"Capacity":"7.032"},{"Id":5474,"Name":"Borussia Park Nebenplatz 4","Nation":"Germany","Town":"Mönchengladbach","Latitude":51.174594879150391,"Longitude":6.3854384422302246,"Capacity":"???"},{"Id":4756,"Name":"Borussia-Park","Nation":"Germany","Town":"Mönchengladbach","Latitude":51.174594879150391,"Longitude":6.3854384422302246,"Capacity":"54.022"},{"Id":4699,"Name":"Borussia-Park","Nation":"Germany","Town":"Mönchengladbach","Latitude":51.174594879150391,"Longitude":6.3854384422302246,"Capacity":"54.022"},{"Id":3377,"Name":"Borussia-Park","Nation":"Germany","Town":"Mönchengladbach","Latitude":51.174594879150391,"Longitude":6.3854384422302246,"Capacity":"54.022"},{"Id":5390,"Name":"Borussia-Park Kunstrasenplatz","Nation":"Germany","Town":"Mönchengladbach","Latitude":51.174594879150391,"Longitude":6.3854384422302246,"Capacity":"???"},{"Id":5475,"Name":"Borussia-Park Nebenplatz 1","Nation":"Germany","Town":"Mönchengladbach","Latitude":51.174594879150391,"Longitude":6.3854384422302246,"Capacity":"???"},{"Id":5581,"Name":"Borussia-Park Nebenplatz 1","Nation":"Germany","Town":"Mönchengladbach","Latitude":51.174594879150391,"Longitude":6.3854384422302246,"Capacity":"???"},{"Id":5582,"Name":"Borussia-Park Nebenplatz 10","Nation":"Germany","Town":"Mönchengladbach","Latitude":51.174594879150391,"Longitude":6.3854384422302246,"Capacity":"???"},{"Id":5476,"Name":"Borussia-Park Nebenplatz 10","Nation":"Germany","Town":"Mönchengladbach","Latitude":51.174594879150391,"Longitude":6.3854384422302246,"Capacity":"???"},{"Id":4840,"Name":"Borussia-Park Nebenplatz 10","Nation":"Germany","Town":"Mönchengladbach","Latitude":51.174594879150391,"Longitude":6.3854384422302246,"Capacity":"???"},{"Id":4328,"Name":"Bosuil","Nation":"Belgium","Town":"Antwerp","Latitude":51.232452392578125,"Longitude":4.471982479095459,"Capacity":"16.649"},{"Id":4378,"Name":"Botev-1912","Nation":"Bulgaria","Town":"Plovdiv","Latitude":42.106739044189453,"Longitude":24.706655502319336,"Capacity":"3.000"},{"Id":5927,"Name":"Boundary Park","Nation":"England","Town":"Oldham","Latitude":53.555126190185547,"Longitude":-2.1284723281860352,"Capacity":"13.624"},{"Id":5777,"Name":"Boundary Park","Nation":"England","Town":"Oldham","Latitude":53.555126190185547,"Longitude":-2.1284723281860352,"Capacity":"13.624"},{"Id":3682,"Name":"Bozsik-József-Stadion","Nation":"Hungary","Town":"Budapest","Latitude":47.442470550537109,"Longitude":19.155071258544922,"Capacity":"10.000"},{"Id":3891,"Name":"Bozsik-József-Stadion","Nation":"Hungary","Town":"Budapest","Latitude":47.442470550537109,"Longitude":19.155071258544922,"Capacity":"10.000"},{"Id":7439,"Name":"Bozsik-József-Stadion","Nation":"Hungary","Town":"Budapest","Latitude":47.442470550537109,"Longitude":19.155071258544922,"Capacity":"10.000"},{"Id":5928,"Name":"Bramall Lane","Nation":"England","Town":"Sheffield","Latitude":53.370338439941406,"Longitude":-1.4708536863327026,"Capacity":"33.000"},{"Id":5831,"Name":"Bramall Lane","Nation":"England","Town":"Sheffield","Latitude":53.370338439941406,"Longitude":-1.4708536863327026,"Capacity":"33.000"},{"Id":5728,"Name":"Bramall Lane","Nation":"England","Town":"Sheffield","Latitude":53.370338439941406,"Longitude":-1.4708536863327026,"Capacity":"33.000"},{"Id":6020,"Name":"Brandywell","Nation":"Northern Ireland","Town":"Derry","Latitude":0.0,"Longitude":0.0,"Capacity":"10.000"},{"Id":3683,"Name":"Brandywell","Nation":"Northern Ireland","Town":"Derry","Latitude":0.0,"Longitude":0.0,"Capacity":"10.000"},{"Id":6348,"Name":"Brann Stadion","Nation":"Norway","Town":"Bergen","Latitude":60.366920471191406,"Longitude":5.3574552536010742,"Capacity":"17.317"},{"Id":7166,"Name":"Bravida Arena","Nation":"Sweden","Town":"Göteborg","Latitude":57.719200134277344,"Longitude":11.930500984191895,"Capacity":"6.500"},{"Id":7134,"Name":"Bravida Arena","Nation":"Sweden","Town":"Göteborg","Latitude":57.719200134277344,"Longitude":11.930500984191895,"Capacity":"6.500"},{"Id":7149,"Name":"Bravida Arena","Nation":"Sweden","Town":"Göteborg","Latitude":57.719200134277344,"Longitude":11.930500984191895,"Capacity":"6.500"},{"Id":3684,"Name":"Bravida Arena","Nation":"Sweden","Town":"Göteborg","Latitude":57.719200134277344,"Longitude":11.930500984191895,"Capacity":"6.500"},{"Id":5128,"Name":"Breite Bruch Rasenplatz","Nation":"Germany","Town":"Paderborn","Latitude":51.764419555664062,"Longitude":8.8029975891113281,"Capacity":"???"},{"Id":5129,"Name":"Bremenstadion","Nation":"Germany","Town":"Ennepetal","Latitude":51.294334411621094,"Longitude":7.3462738990783691,"Capacity":"???"},{"Id":4757,"Name":"Bremer Brücke","Nation":"Germany","Town":"Osnabrück","Latitude":52.280826568603516,"Longitude":8.07121753692627,"Capacity":"16.667"},{"Id":4734,"Name":"Bremer Brücke","Nation":"Germany","Town":"Osnabrück","Latitude":52.280826568603516,"Longitude":8.07121753692627,"Capacity":"16.667"},{"Id":5408,"Name":"Brentano-Stadion","Nation":"Germany","Town":"Frankfurt am Main","Latitude":50.124813079833984,"Longitude":8.6206197738647461,"Capacity":"5.500"},{"Id":5349,"Name":"Brentano-Stadion","Nation":"Germany","Town":"Frankfurt am Main","Latitude":50.124813079833984,"Longitude":8.6206197738647461,"Capacity":"5.500"},{"Id":5310,"Name":"Brentano-Stadion","Nation":"Germany","Town":"Frankfurt am Main","Latitude":50.124813079833984,"Longitude":8.6206197738647461,"Capacity":"5.500"},{"Id":5323,"Name":"Brentano-Stadion","Nation":"Germany","Town":"Frankfurt am Main","Latitude":50.124813079833984,"Longitude":8.6206197738647461,"Capacity":"5.500"},{"Id":6362,"Name":"Briskeby Arena","Nation":"Norway","Town":"Hamar","Latitude":60.795623779296875,"Longitude":11.092371940612793,"Capacity":"8.068"},{"Id":4735,"Name":"Brita-Arena","Nation":"Germany","Town":"Wiesbaden","Latitude":50.071113586425781,"Longitude":8.25621509552002,"Capacity":"13.500"},{"Id":4758,"Name":"Brita-Arena","Nation":"Germany","Town":"Wiesbaden","Latitude":50.071113586425781,"Longitude":8.25621509552002,"Capacity":"13.500"},{"Id":3685,"Name":"Brøndby Stadion","Nation":"Denmark","Town":"Brøndby","Latitude":55.648971557617188,"Longitude":12.418606758117676,"Capacity":"29.000"},{"Id":3950,"Name":"Brøndby Stadion","Nation":"Denmark","Town":"Brøndby","Latitude":55.648971557617188,"Longitude":12.418606758117676,"Capacity":"29.000"},{"Id":4447,"Name":"Brøndby Stadion","Nation":"Denmark","Town":"Brøndby","Latitude":55.648971557617188,"Longitude":12.418606758117676,"Capacity":"29.000"},{"Id":4410,"Name":"Brøndby Stadion","Nation":"Denmark","Town":"Brøndby","Latitude":55.648971557617188,"Longitude":12.418606758117676,"Capacity":"29.000"},{"Id":4400,"Name":"Brøndby Stadion","Nation":"Denmark","Town":"Brøndby","Latitude":55.648971557617188,"Longitude":12.418606758117676,"Capacity":"29.000"},{"Id":4861,"Name":"Bruchwegstadion","Nation":"Germany","Town":"Mainz","Latitude":50.000930786132812,"Longitude":8.24573040008545,"Capacity":"20.300"},{"Id":5502,"Name":"Bruchwegstadion","Nation":"Germany","Town":"Mainz","Latitude":50.000930786132812,"Longitude":8.24573040008545,"Capacity":"20.300"},{"Id":5610,"Name":"Bruchwegstadion","Nation":"Germany","Town":"Mainz","Latitude":50.000930786132812,"Longitude":8.24573040008545,"Capacity":"20.300"},{"Id":7258,"Name":"Brügglifeld","Nation":"Switzerland","Town":"Aarau","Latitude":47.383338928222656,"Longitude":8.0598049163818359,"Capacity":"9.250"},{"Id":7228,"Name":"Brügglifeld","Nation":"Switzerland","Town":"Aarau","Latitude":47.383338928222656,"Longitude":8.0598049163818359,"Capacity":"9.250"},{"Id":7167,"Name":"Brunna IP 1","Nation":"Sweden","Town":"Södertälje","Latitude":0.0,"Longitude":0.0,"Capacity":"???"},{"Id":6144,"Name":"Bruno Benelli","Nation":"Italy","Town":"Ravenna","Latitude":44.406219482421875,"Longitude":12.194845199584961,"Capacity":"12.020"},{"Id":6145,"Name":"Bruno Recchioni","Nation":"Italy","Town":"Fermo","Latitude":0.0,"Longitude":0.0,"Capacity":"???"},{"Id":4825,"Name":"Bruno-Plache-Stadion","Nation":"Germany","Town":"Leipzig","Latitude":51.302902221679688,"Longitude":12.419282913208008,"Capacity":"10.900"},{"Id":4513,"Name":"Bruno-Plache-Stadion","Nation":"Germany","Town":"Leipzig","Latitude":51.302902221679688,"Longitude":12.419282913208008,"Capacity":"10.900"},{"Id":4474,"Name":"Bruno-Plache-Stadion","Nation":"Germany","Town":"Leipzig","Latitude":51.302902221679688,"Longitude":12.419282913208008,"Capacity":"10.900"},{"Id":5929,"Name":"Brunton Park","Nation":"England","Town":"Carlisle","Latitude":54.8955078125,"Longitude":-2.9135870933532715,"Capacity":"16.651"},{"Id":5778,"Name":"Brunton Park","Nation":"England","Town":"Carlisle","Latitude":54.8955078125,"Longitude":-2.9135870933532715,"Capacity":"16.651"},{"Id":5324,"Name":"BSA Ardelhütte","Nation":"Germany","Town":"Essen","Latitude":51.458904266357422,"Longitude":6.9302611351013184,"Capacity":"???"},{"Id":5583,"Name":"BSA Baulandstraße","Nation":"Germany","Town":"Gelsenkirchen","Latitude":51.588600158691406,"Longitude":7.0126514434814453,"Capacity":"???"},{"Id":4938,"Name":"BSA Bürgerpark","Nation":"Germany","Town":"Bremerhaven","Latitude":53.539882659912109,"Longitude":8.61155891418457,"Capacity":"2.500"},{"Id":5584,"Name":"BSA Garath","Nation":"Germany","Town":"Düsseldorf","Latitude":51.149578094482422,"Longitude":6.89011287689209,"Capacity":"???"},{"Id":4939,"Name":"BSA Gröpelingen","Nation":"Germany","Town":"Bremen","Latitude":53.116264343261719,"Longitude":8.7725992202758789,"Capacity":"???"},{"Id":5048,"Name":"BSA Hamborn","Nation":"Germany","Town":"Duisburg","Latitude":51.512897491455078,"Longitude":6.7621889114379883,"Capacity":"2.000"},{"Id":5427,"Name":"BSA Hamborn 07","Nation":"Germany","Town":"Duisburg","Latitude":51.505409240722656,"Longitude":6.7778759002685547,"Capacity":"5.000"},{"Id":5049,"Name":"BSA Heerdt Kunstrasenplatz","Nation":"Germany","Town":"Düsseldorf","Latitude":51.2321662902832,"Longitude":6.7306289672851562,"Capacity":"1.000"},{"Id":5106,"Name":"BSA Mainz-Mombach","Nation":"Germany","Town":"Mainz","Latitude":50.012596130371094,"Longitude":8.2262659072875977,"Capacity":"???"},{"Id":5227,"Name":"BSA Mitte","Nation":"Germany","Town":"Ingolstadt","Latitude":48.766353607177734,"Longitude":11.413620948791504,"Capacity":"8.000"},{"Id":5477,"Name":"BSA Mitte II","Nation":"Germany","Town":"Essen","Latitude":51.477191925048828,"Longitude":7.0209059715271,"Capacity":"???"},{"Id":5050,"Name":"BSA Oberkassel Kunstrasenplatz","Nation":"Germany","Town":"Düsseldorf","Latitude":51.237186431884766,"Longitude":6.7514190673828125,"Capacity":"500"},{"Id":5528,"Name":"BSA Obervieland","Nation":"Germany","Town":"Bremen","Latitude":53.025344848632812,"Longitude":8.836329460144043,"Capacity":"4.000"},{"Id":5478,"Name":"BSA Oststadt","Nation":"Germany","Town":"Essen","Latitude":51.447853088378906,"Longitude":7.1169939041137695,"Capacity":"???"},{"Id":5585,"Name":"BSA Oststadt","Nation":"Germany","Town":"Essen","Latitude":51.447853088378906,"Longitude":7.1169939041137695,"Capacity":"???"},{"Id":5051,"Name":"BSA Ratingen (Kunstrasenplatz)","Nation":"Germany","Town":"Ratingen","Latitude":51.307365417480469,"Longitude":6.8392062187194824,"Capacity":"2.000"},{"Id":5107,"Name":"BSA Rheingönheim","Nation":"Germany","Town":"Ludwigshafen","Latitude":49.438385009765625,"Longitude":8.4279117584228516,"Capacity":"???"},{"Id":4940,"Name":"BSA Rollsportstadion","Nation":"Germany","Town":"Bremen","Latitude":53.063030242919922,"Longitude":8.84508228302002,"Capacity":"???"},{"Id":5052,"Name":"BSA Schetters Busch (Kunstrasenplatz)","Nation":"Germany","Town":"Essen","Latitude":51.4785270690918,"Longitude":7.068458080291748,"Capacity":"2.000"},{"Id":5053,"Name":"BSA Stadion Feuerbachstraße","Nation":"Germany","Town":"Düsseldorf","Latitude":51.209270477294922,"Longitude":6.7918357849121094,"Capacity":"7.000"},{"Id":5267,"Name":"BSA Stadion Feuerbachstraße","Nation":"Germany","Town":"Düsseldorf","Latitude":51.209270477294922,"Longitude":6.7918357849121094,"Capacity":"7.000"},{"Id":4941,"Name":"BSA Süd","Nation":"Germany","Town":"Bremen","Latitude":53.055103302001953,"Longitude":8.8095560073852539,"Capacity":"???"},{"Id":5529,"Name":"BSA Uellendahl","Nation":"Germany","Town":"Wuppertal","Latitude":51.282600402832031,"Longitude":7.1676135063171387,"Capacity":"3.500"},{"Id":5479,"Name":"BSA Westender Straße","Nation":"Germany","Town":"Duisburg","Latitude":51.464008331298828,"Longitude":6.784454345703125,"Capacity":"5.000"},{"Id":5586,"Name":"BSA Westender Straße","Nation":"Germany","Town":"Duisburg","Latitude":51.464008331298828,"Longitude":6.784454345703125,"Capacity":"5.000"},{"Id":5268,"Name":"BSA Westender Straße","Nation":"Germany","Town":"Duisburg","Latitude":51.464008331298828,"Longitude":6.784454345703125,"Capacity":"5.000"},{"Id":3686,"Name":"BSFZ-Arena","Nation":"Austria","Town":"Maria Enzersdorf","Latitude":48.09747314453125,"Longitude":16.311382293701172,"Capacity":"12.000"},{"Id":7943,"Name":"Bukit Jalil National Stadium","Nation":"Malaysia","Town":"Kuala Lumpur","Latitude":0.0,"Longitude":0.0,"Capacity":"87.411"},{"Id":3687,"Name":"Bulgarska Armia","Nation":"Bulgaria","Town":"Sofia","Latitude":42.684257507324219,"Longitude":23.33976936340332,"Capacity":"22.015"},{"Id":4379,"Name":"Bulgarska Armia","Nation":"Bulgaria","Town":"Sofia","Latitude":42.684257507324219,"Longitude":23.33976936340332,"Capacity":"22.015"},{"Id":4309,"Name":"Bundesstadion Südstadt","Nation":"Austria","Town":"Maria Enzersdorf","Latitude":48.09747314453125,"Longitude":16.311382293701172,"Capacity":"12.000"},{"Id":5148,"Name":"Buniamshof","Nation":"Germany","Town":"Lübeck","Latitude":53.858333587646484,"Longitude":10.681387901306152,"Capacity":"8.549"},{"Id":4110,"Name":"Burgermeester Van De Wiele Stadion","Nation":"Belgium","Town":"Deinze","Latitude":50.983848571777344,"Longitude":3.5203499794006348,"Capacity":"8.000"},{"Id":4340,"Name":"Burgermeester Van De Wiele Stadion","Nation":"Belgium","Town":"Deinze","Latitude":50.983848571777344,"Longitude":3.5203499794006348,"Capacity":"8.000"},{"Id":4942,"Name":"Burgwall-Stadion","Nation":"Germany","Town":"Bremen","Latitude":53.188179016113281,"Longitude":8.5835371017456055,"Capacity":"10.000"},{"Id":7944,"Name":"Buriram Stadium","Nation":"Thailand","Town":"Buriram","Latitude":14.945915222167969,"Longitude":103.10348510742188,"Capacity":"32.600"},{"Id":7987,"Name":"Buriram Stadium","Nation":"Thailand","Town":"Buriram","Latitude":14.945915222167969,"Longitude":103.10348510742188,"Capacity":"32.600"},{"Id":5587,"Name":"BVB Trainingszentrum","Nation":"Germany","Town":"Dortmund","Latitude":51.539360046386719,"Longitude":7.5543599128723145,"Capacity":"3.000"},{"Id":5480,"Name":"BVB Trainingszentrum","Nation":"Germany","Town":"Dortmund","Latitude":51.539360046386719,"Longitude":7.5543599128723145,"Capacity":"3.000"},{"Id":5530,"Name":"BVB Trainingszentrum","Nation":"Germany","Town":"Dortmund","Latitude":51.539360046386719,"Longitude":7.5543599128723145,"Capacity":"3.000"},{"Id":5524,"Name":"BVB Trainingszentrum","Nation":"Germany","Town":"Dortmund","Latitude":51.539360046386719,"Longitude":7.5543599128723145,"Capacity":"3.000"},{"Id":5630,"Name":"BVB Trainingszentrum","Nation":"Germany","Town":"Dortmund","Latitude":51.539360046386719,"Longitude":7.5543599128723145,"Capacity":"3.000"},{"Id":4111,"Name":"BVB Trainingszentrum","Nation":"Germany","Town":"Dortmund","Latitude":51.539360046386719,"Longitude":7.5543599128723145,"Capacity":"3.000"},{"Id":4718,"Name":"BWT-Stadion am Hardtwald","Nation":"Germany","Town":"Sandhausen","Latitude":49.332080841064453,"Longitude":8.6476774215698242,"Capacity":"15.414"},{"Id":5503,"Name":"BZA Waldau","Nation":"Germany","Town":"Stuttgart","Latitude":48.750358581542969,"Longitude":9.1884002685546875,"Capacity":"2.000"},{"Id":5611,"Name":"BZA Waldau","Nation":"Germany","Town":"Stuttgart","Latitude":48.750358581542969,"Longitude":9.1884002685546875,"Capacity":"2.000"},{"Id":6242,"Name":"C.S. B. Ferdeghini Campo A","Nation":"Italy","Town":"La Spezia","Latitude":44.111129760742188,"Longitude":9.8702373504638672,"Capacity":"???"},{"Id":8471,"Name":"Cachamay","Nation":"Venezuela","Town":"Puerto Ordaz","Latitude":8.3126382827758789,"Longitude":-62.696269989013672,"Capacity":"45.600"},{"Id":8705,"Name":"Cachamay","Nation":"Venezuela","Town":"Puerto Ordaz","Latitude":8.3126382827758789,"Longitude":-62.696269989013672,"Capacity":"45.600"},{"Id":6897,"Name":"Čair","Nation":"Serbia","Town":"Nis","Latitude":43.315513610839844,"Longitude":21.90869140625,"Capacity":"8.900"},{"Id":6904,"Name":"Čair","Nation":"Serbia","Town":"Nis","Latitude":43.315513610839844,"Longitude":21.90869140625,"Capacity":"8.900"},{"Id":3688,"Name":"Čair","Nation":"Serbia","Town":"Nis","Latitude":43.315513610839844,"Longitude":21.90869140625,"Capacity":"8.900"},{"Id":8373,"Name":"Cairo Military Academy Stadium","Nation":"Egypt","Town":"Cairo","Latitude":30.111072540283203,"Longitude":31.367576599121094,"Capacity":"28.500"},{"Id":6646,"Name":"Caixa Futebol Campus","Nation":"Portugal","Town":"Seixal","Latitude":38.639717102050781,"Longitude":-9.0904827117919922,"Capacity":"1.600"},{"Id":4112,"Name":"Caixa Futebol Campus","Nation":"Portugal","Town":"Seixal","Latitude":38.639717102050781,"Longitude":-9.0904827117919922,"Capacity":"1.600"},{"Id":6863,"Name":"Caledonian Stadium","Nation":"Scotland","Town":"Inverness","Latitude":57.4948844909668,"Longitude":-4.2170548439025879,"Capacity":"7.200"},{"Id":6851,"Name":"Caledonian Stadium","Nation":"Scotland","Town":"Inverness","Latitude":57.4948844909668,"Longitude":-4.2170548439025879,"Capacity":"7.200"},{"Id":8215,"Name":"Caliente","Nation":"Mexico","Town":"Tijuana","Latitude":32.506065368652344,"Longitude":-116.99309539794922,"Capacity":"28.333"},{"Id":8238,"Name":"Caliente","Nation":"Mexico","Town":"Tijuana","Latitude":32.506065368652344,"Longitude":-116.99309539794922,"Capacity":"28.333"},{"Id":8257,"Name":"Caliente","Nation":"Mexico","Town":"Tijuana","Latitude":32.506065368652344,"Longitude":-116.99309539794922,"Capacity":"28.333"},{"Id":6397,"Name":"Cambuur Stadion","Nation":"Netherlands","Town":"Leeuwarden","Latitude":53.20538330078125,"Longitude":5.8145813941955566,"Capacity":"10.000"},{"Id":6435,"Name":"Cambuur Stadion","Nation":"Netherlands","Town":"Leeuwarden","Latitude":53.20538330078125,"Longitude":5.8145813941955566,"Capacity":"10.000"},{"Id":6544,"Name":"Cambuur Stadion","Nation":"Netherlands","Town":"Leeuwarden","Latitude":53.20538330078125,"Longitude":5.8145813941955566,"Capacity":"10.000"},{"Id":7945,"Name":"Camille-Chamoun-Stadion","Nation":"Lebanon","Town":"Beirut","Latitude":33.867118835449219,"Longitude":35.495792388916016,"Capacity":"49.000"},{"Id":6992,"Name":"Camp d'Esports","Nation":"Spain","Town":"Lleida","Latitude":41.621322631835938,"Longitude":0.6142280101776123,"Capacity":"13.500"},{"Id":7086,"Name":"Camp d'Esports","Nation":"Spain","Town":"Lleida","Latitude":41.621322631835938,"Longitude":0.6142280101776123,"Capacity":"13.500"},{"Id":6993,"Name":"Camp Nou","Nation":"Spain","Town":"Barcelona","Latitude":41.380886077880859,"Longitude":2.1228129863739014,"Capacity":"99.354"},{"Id":6948,"Name":"Camp Nou","Nation":"Spain","Town":"Barcelona","Latitude":41.380886077880859,"Longitude":2.1228129863739014,"Capacity":"99.354"},{"Id":3525,"Name":"Camp Nou","Nation":"Spain","Town":"Barcelona","Latitude":41.380886077880859,"Longitude":2.1228129863739014,"Capacity":"99.354"},{"Id":8016,"Name":"Campbelltown Stadium","Nation":"Australia","Town":"Campbelltown","Latitude":-34.050357818603516,"Longitude":150.83367919921875,"Capacity":"20.000"},{"Id":8429,"Name":"Campeón del Siglo","Nation":"Uruguay","Town":"Montevideo","Latitude":-34.796749114990234,"Longitude":-56.067138671875,"Capacity":"40.000"},{"Id":8686,"Name":"Campeón del Siglo","Nation":"Uruguay","Town":"Montevideo","Latitude":-34.796749114990234,"Longitude":-56.067138671875,"Capacity":"40.000"},{"Id":6243,"Name":"Campo Academy","Nation":"Italy","Town":"Genova","Latitude":0.0,"Longitude":0.0,"Capacity":"???"},{"Id":6291,"Name":"Campo Academy","Nation":"Italy","Town":"Genova","Latitude":0.0,"Longitude":0.0,"Capacity":"???"},{"Id":6257,"Name":"Campo Chisola","Nation":"Italy","Town":"Vinovo","Latitude":44.952007293701172,"Longitude":7.6314120292663574,"Capacity":"???"},{"Id":6275,"Name":"Campo comunale Baffa","Nation":"Italy","Town":"Crotone","Latitude":0.0,"Longitude":0.0,"Capacity":"???"},{"Id":6218,"Name":"Campo Comunale di Manzano","Nation":"Italy","Town":"Udine","Latitude":0.0,"Longitude":0.0,"Capacity":"???"},{"Id":6244,"Name":"Campo Comunale di Vigasio","Nation":"Italy","Town":"Vigasio","Latitude":45.3213996887207,"Longitude":10.945137977600098,"Capacity":"???"},{"Id":6219,"Name":"Campo Comunale Ernesto Breda","Nation":"Italy","Town":"Milano","Latitude":0.0,"Longitude":0.0,"Capacity":"???"},{"Id":6949,"Name":"Campo de Fútbol de Vallecas","Nation":"Spain","Town":"Madrid","Latitude":40.391826629638672,"Longitude":-3.6585893630981445,"Capacity":"14.505"},{"Id":6994,"Name":"Campo de Fútbol de Vallecas","Nation":"Spain","Town":"Madrid","Latitude":40.391826629638672,"Longitude":-3.6585893630981445,"Capacity":"14.505"},{"Id":6664,"Name":"Campo do Sacavenense","Nation":"Portugal","Town":"Sacavém","Latitude":0.0,"Longitude":0.0,"Capacity":"3.100"},{"Id":6276,"Name":"Campo G.Figliola","Nation":"Italy","Town":"Salerno","Latitude":0.0,"Longitude":0.0,"Capacity":"???"},{"Id":7046,"Name":"Campo García de la Mata","Nation":"Spain","Town":"Madrid","Latitude":40.447525024414062,"Longitude":-3.6593060493469238,"Capacity":"3.000"},{"Id":6277,"Name":"Campo La Selvotta","Nation":"Italy","Town":"Frosinone","Latitude":0.0,"Longitude":0.0,"Capacity":"???"},{"Id":6665,"Name":"Campo Manuel Marques","Nation":"Portugal","Town":"Torres Vedras","Latitude":0.0,"Longitude":0.0,"Capacity":"12.000"},{"Id":6278,"Name":"Campo Orlando Strinati","Nation":"Italy","Town":"Terni","Latitude":42.575214385986328,"Longitude":12.67603874206543,"Capacity":"???"},{"Id":6258,"Name":"Campo Secondario Sant’Egidio alla Vibrata","Nation":"Italy","Town":"Sant’Egidio alla Vibrata","Latitude":0.0,"Longitude":0.0,"Capacity":"1.000"},{"Id":7259,"Name":"Campo Seseglio","Nation":"Switzerland","Town":"Seseglio","Latitude":0.0,"Longitude":0.0,"Capacity":"1.150"},{"Id":6259,"Name":"Campo Sportivo Comunale Flaibano","Nation":"Italy","Town":"Flaibano","Latitude":0.0,"Longitude":0.0,"Capacity":"???"},{"Id":6260,"Name":"Campo Sportivo Don Mosso","Nation":"Italy","Town":"Venaria Reale","Latitude":45.127216339111328,"Longitude":7.6463451385498047,"Capacity":"???"},{"Id":6292,"Name":"Campo Sportivo Don Mosso","Nation":"Italy","Town":"Venaria Reale","Latitude":45.127216339111328,"Longitude":7.6463451385498047,"Capacity":"???"},{"Id":6279,"Name":"Campo Vincenzo Volpe","Nation":"Italy","Town":"Salerno","Latitude":0.0,"Longitude":0.0,"Capacity":"???"},{"Id":8258,"Name":"Cancha Anexa","Nation":"Mexico","Town":"Morelia","Latitude":19.717792510986328,"Longitude":-101.23130035400391,"Capacity":"???"},{"Id":8584,"Name":"CAP","Nation":"Chile","Town":"Talcahuano","Latitude":-36.755218505859375,"Longitude":-73.107429504394531,"Capacity":"10.500"},{"Id":8382,"Name":"Cape Town Stadium","Nation":"South Africa","Town":"Cape Town","Latitude":-33.903377532958984,"Longitude":18.4111328125,"Capacity":"64.100"},{"Id":4423,"Name":"Capelli Sport Stadion, Køge Idrætspark","Nation":"Denmark","Town":"Køge","Latitude":0.0,"Longitude":0.0,"Capacity":"???"},{"Id":4054,"Name":"Cappielow Park","Nation":"Scotland","Town":"Greenock","Latitude":55.941360473632812,"Longitude":-4.7266907691955566,"Capacity":"11.000"},{"Id":6852,"Name":"Cappielow Park","Nation":"Scotland","Town":"Greenock","Latitude":55.941360473632812,"Longitude":-4.7266907691955566,"Capacity":"11.000"},{"Id":8259,"Name":"CAR","Nation":"Mexico","Town":"Veracruz","Latitude":19.159053802490234,"Longitude":-96.1941909790039,"Capacity":"???"},{"Id":3689,"Name":"Cardiff City Stadium","Nation":"Wales","Town":"Cardiff","Latitude":51.472816467285156,"Longitude":-3.2031154632568359,"Capacity":"33.000"},{"Id":3378,"Name":"Cardiff City Stadium","Nation":"Wales","Town":"Cardiff","Latitude":51.472816467285156,"Longitude":-3.2031154632568359,"Capacity":"33.000"},{"Id":3472,"Name":"Cardiff City Stadium","Nation":"Wales","Town":"Cardiff","Latitude":51.472816467285156,"Longitude":-3.2031154632568359,"Capacity":"33.000"},{"Id":5930,"Name":"Cardiff City Stadium","Nation":"Wales","Town":"Cardiff","Latitude":51.472816467285156,"Longitude":-3.2031154632568359,"Capacity":"33.000"},{"Id":5707,"Name":"Cardiff City Stadium","Nation":"Wales","Town":"Cardiff","Latitude":51.472816467285156,"Longitude":-3.2031154632568359,"Capacity":"33.000"},{"Id":4862,"Name":"Carl-Benz-Stadion","Nation":"Germany","Town":"Mannheim","Latitude":49.479446411132812,"Longitude":8.5025062561035156,"Capacity":"25.721"},{"Id":5228,"Name":"Carl-Benz-Stadion","Nation":"Germany","Town":"Mannheim","Latitude":49.479446411132812,"Longitude":8.5025062561035156,"Capacity":"25.721"},{"Id":4044,"Name":"Carlisle Ground","Nation":"Ireland","Town":"Bray","Latitude":53.205680847167969,"Longitude":-6.10291051864624,"Capacity":"7.000"},{"Id":6044,"Name":"Carlo Castellani","Nation":"Italy","Town":"Empoli","Latitude":43.726512908935547,"Longitude":10.954699516296387,"Capacity":"19.847"},{"Id":6084,"Name":"Carlo Castellani","Nation":"Italy","Town":"Empoli","Latitude":43.726512908935547,"Longitude":10.954699516296387,"Capacity":"19.847"},{"Id":6995,"Name":"Carlos Belmonte","Nation":"Spain","Town":"Albacete","Latitude":38.981143951416016,"Longitude":-1.8521350622177124,"Capacity":"18.000"},{"Id":6966,"Name":"Carlos Belmonte","Nation":"Spain","Town":"Albacete","Latitude":38.981143951416016,"Longitude":-1.8521350622177124,"Capacity":"18.000"},{"Id":8600,"Name":"Carlos Dittborn","Nation":"Chile","Town":"Arica","Latitude":-18.48753547668457,"Longitude":-70.299034118652344,"Capacity":"17.786"},{"Id":4209,"Name":"Carrow Road","Nation":"England","Town":"Norwich","Latitude":52.622089385986328,"Longitude":1.3091164827346802,"Capacity":"27.244"},{"Id":5729,"Name":"Carrow Road","Nation":"England","Town":"Norwich","Latitude":52.622089385986328,"Longitude":1.3091164827346802,"Capacity":"27.244"},{"Id":5832,"Name":"Carrow Road","Nation":"England","Town":"Norwich","Latitude":52.622089385986328,"Longitude":1.3091164827346802,"Capacity":"27.244"},{"Id":5931,"Name":"Carrow Road","Nation":"England","Town":"Norwich","Latitude":52.622089385986328,"Longitude":1.3091164827346802,"Capacity":"27.244"},{"Id":6556,"Name":"Cars Jeans Stadion","Nation":"Netherlands","Town":"Den Haag","Latitude":52.062812805175781,"Longitude":4.3831691741943359,"Capacity":"15.000"},{"Id":6379,"Name":"Cars Jeans Stadion","Nation":"Netherlands","Town":"Den Haag","Latitude":52.062812805175781,"Longitude":4.3831691741943359,"Capacity":"15.000"},{"Id":6996,"Name":"Cartagonova","Nation":"Spain","Town":"Cartagena","Latitude":37.609668731689453,"Longitude":-0.9960169792175293,"Capacity":"14.500"},{"Id":7108,"Name":"Cartagonova","Nation":"Spain","Town":"Cartagena","Latitude":37.609668731689453,"Longitude":-0.9960169792175293,"Capacity":"14.500"},{"Id":4424,"Name":"CASA Arena","Nation":"Denmark","Town":"Horsens","Latitude":55.871723175048828,"Longitude":9.857579231262207,"Capacity":"10.400"},