[{"Id":8233,"Name":"10 de Diciembre","NationId":602,"Capacity":"17.000","Town":"Ciudad Cooperativa Cruz Azul","Latitude":19.99395751953125,"Longitude":-99.325408935546875,"Teams":null,"Nation":null},{"Id":7365,"Name":"12 Haziran","NationId":627,"Capacity":"???","Town":"Amasya","Latitude":0.0,"Longitude":0.0,"Teams":null,"Nation":null},{"Id":7366,"Name":"12 Şubat Stadyumu","NationId":627,"Capacity":"15.050","Town":"Kahramanmaraş","Latitude":0.0,"Longitude":0.0,"Teams":null,"Nation":null},{"Id":7367,"Name":"13 Şubat Stadyumu","NationId":627,"Capacity":"???","Town":"Erzincan","Latitude":39.750640869140625,"Longitude":39.496841430664062,"Teams":null,"Nation":null},{"Id":7368,"Name":"16 Mayıs Şehir Stadyumu","NationId":627,"Capacity":"???","Town":"Batman","Latitude":0.0,"Longitude":0.0,"Teams":null,"Nation":null},{"Id":8116,"Name":"17 Mei","NationId":593,"Capacity":"15.000","Town":"Banjarmasin","Latitude":-3.3170900344848633,"Longitude":114.58011627197266,"Teams":"60723","Nation":null},{"Id":3608,"Name":"19 Mayis","NationId":627,"Capacity":"20.000","Town":"Manisa","Latitude":38.623283386230469,"Longitude":27.439722061157227,"Teams":"7075","Nation":null},{"Id":8350,"Name":"1er Novembre 1954","NationId":488,"Capacity":"25.000","Town":"Tizi Ouzou","Latitude":36.706890106201172,"Longitude":4.056063175201416,"Teams":"7","Nation":null},{"Id":8351,"Name":"1er Novembre 1954","NationId":488,"Capacity":"20.000","Town":"Batna","Latitude":35.557296752929688,"Longitude":6.1879358291625977,"Teams":"60623","Nation":null},{"Id":6300,"Name":"2. pamatskolas stadions","NationId":712,"Capacity":"500","Town":"Ventspils","Latitude":0.0,"Longitude":0.0,"Teams":"60230","Nation":null},{"Id":8352,"Name":"20 août 1955","NationId":488,"Capacity":"30.000","Town":"Bordj Bou Arriredj","Latitude":36.069374084472656,"Longitude":4.7860798835754395,"Teams":"60624","Nation":null},{"Id":8353,"Name":"20 août 1955","NationId":488,"Capacity":"8.000","Town":"Béchar","Latitude":31.605678558349609,"Longitude":-2.2183270454406738,"Teams":"60625","Nation":null},{"Id":8354,"Name":"20 août 1955","NationId":488,"Capacity":"20.000","Town":"Algier","Latitude":36.74560546875,"Longitude":3.0784893035888672,"Teams":"60626","Nation":null},{"Id":8531,"Name":"23 de Agosto","NationId":492,"Capacity":"23.000","Town":"San Salvador","Latitude":-24.198553085327148,"Longitude":-65.29083251953125,"Teams":"60581","Nation":null},{"Id":8355,"Name":"24 février","NationId":488,"Capacity":"45.000","Town":"Sidi Bel Abbès","Latitude":35.185108184814453,"Longitude":-0.62190300226211548,"Teams":"60627","Nation":null},{"Id":5127,"Name":"24nexx Arena","NationId":586,"Capacity":"8.500","Town":"Hamm","Latitude":51.690570831298828,"Longitude":7.8350138664245605,"Teams":"60121","Nation":null},{"Id":6662,"Name":"25 de Abril","NationId":612,"Capacity":"6.500","Town":"Penafiel","Latitude":41.211784362792969,"Longitude":-8.2779579162597656,"Teams":"60343","Nation":null},{"Id":6643,"Name":"25 de Abril","NationId":612,"Capacity":"6.500","Town":"Penafiel","Latitude":41.211784362792969,"Longitude":-8.2779579162597656,"Teams":"60343","Nation":null},{"Id":8342,"Name":"30 June Air Defence Stadium","NationId":574,"Capacity":"30.000","Town":"Cairo","Latitude":30.01991081237793,"Longitude":31.373775482177734,"Teams":null,"Nation":null},{"Id":8366,"Name":"30 June Air Defence Stadium","NationId":574,"Capacity":"30.000","Town":"Cairo","Latitude":30.01991081237793,"Longitude":31.373775482177734,"Teams":null,"Nation":null},{"Id":7346,"Name":"4 Eylül","NationId":627,"Capacity":"18.700","Town":"Sivas","Latitude":39.741123199462891,"Longitude":37.0031852722168,"Teams":"7078","Nation":null},{"Id":7328,"Name":"4 Eylül","NationId":627,"Capacity":"18.700","Town":"Sivas","Latitude":39.741123199462891,"Longitude":37.0031852722168,"Teams":"7078","Nation":null},{"Id":3884,"Name":"4 Eylül","NationId":627,"Capacity":"18.700","Town":"Sivas","Latitude":39.741123199462891,"Longitude":37.0031852722168,"Teams":"7078","Nation":null},{"Id":8356,"Name":"5 Juillet 1962","NationId":488,"Capacity":"70.000","Town":"Algier","Latitude":36.7598762512207,"Longitude":2.9951691627502441,"Teams":"3","Nation":null},{"Id":7347,"Name":"5 Ocak Fatih Terim Stadı","NationId":627,"Capacity":"16.095","Town":"Adana","Latitude":36.999019622802734,"Longitude":35.329696655273438,"Teams":"2125","Nation":null},{"Id":7369,"Name":"5 Ocak Fatih Terim Stadı","NationId":627,"Capacity":"16.095","Town":"Adana","Latitude":36.999019622802734,"Longitude":35.329696655273438,"Teams":"2125","Nation":null},{"Id":4803,"Name":"53acht-Arena","NationId":586,"Capacity":"2.000","Town":"Edewecht","Latitude":53.091114044189453,"Longitude":8.0579910278320312,"Teams":"59973","Nation":null},{"Id":3885,"Name":"A. Le Coq Arena","NationId":696,"Capacity":"10.300","Town":"Tallinn","Latitude":59.421390533447266,"Longitude":24.732099533081055,"Teams":"59548","Nation":null},{"Id":3817,"Name":"A. Le Coq Arena","NationId":696,"Capacity":"10.300","Town":"Tallinn","Latitude":59.421390533447266,"Longitude":24.732099533081055,"Teams":"59548","Nation":null},{"Id":3556,"Name":"A. Le Coq Arena","NationId":696,"Capacity":"10.300","Town":"Tallinn","Latitude":59.421390533447266,"Longitude":24.732099533081055,"Teams":"59548","Nation":null},{"Id":3364,"Name":"A. Le Coq Arena","NationId":696,"Capacity":"10.300","Town":"Tallinn","Latitude":59.421390533447266,"Longitude":24.732099533081055,"Teams":"59548","Nation":null},{"Id":3485,"Name":"A. Le Coq Arena","NationId":696,"Capacity":"10.300","Town":"Tallinn","Latitude":59.421390533447266,"Longitude":24.732099533081055,"Teams":"59548","Nation":null},{"Id":3665,"Name":"A. Le Coq Arena","NationId":696,"Capacity":"10.300","Town":"Tallinn","Latitude":59.421390533447266,"Longitude":24.732099533081055,"Teams":"59548","Nation":null},{"Id":6241,"Name":"A. Rognoni","NationId":596,"Capacity":"???","Town":"Villa Silvia di Lizzano","Latitude":44.104923248291016,"Longitude":12.197508811950684,"Teams":"2422","Nation":null},{"Id":4406,"Name":"Aab’s anlæg","NationId":571,"Capacity":"1.000","Town":"Aalborg","Latitude":57.043727874755859,"Longitude":10.021422386169434,"Teams":null,"Nation":null},{"Id":4442,"Name":"Aab’s anlæg","NationId":571,"Capacity":"1.000","Town":"Aalborg","Latitude":57.043727874755859,"Longitude":10.021422386169434,"Teams":null,"Nation":null},{"Id":7981,"Name":"AAMI Park","NationId":510,"Capacity":"30.050","Town":"Melbourne","Latitude":-37.825225830078125,"Longitude":144.98330688476562,"Teams":"60674","Nation":null},{"Id":8013,"Name":"AAMI Park","NationId":510,"Capacity":"30.050","Town":"Melbourne","Latitude":-37.825225830078125,"Longitude":144.98330688476562,"Teams":"60674","Nation":null},{"Id":8031,"Name":"AAMI Park","NationId":510,"Capacity":"30.050","Town":"Melbourne","Latitude":-37.825225830078125,"Longitude":144.98330688476562,"Teams":"60674","Nation":null},{"Id":4596,"Name":"Abbe Deschamps","NationId":585,"Capacity":"23.493","Town":"Auxerre","Latitude":47.786735534667969,"Longitude":3.5886454582214355,"Teams":"49997","Nation":null},{"Id":4665,"Name":"Abbe Deschamps","NationId":585,"Capacity":"23.493","Town":"Auxerre","Latitude":47.786735534667969,"Longitude":3.5886454582214355,"Teams":"49997","Nation":null},{"Id":5774,"Name":"Abbey Stadium","NationId":579,"Capacity":"9.018","Town":"Cambridge","Latitude":52.212104797363281,"Longitude":0.15414655208587646,"Teams":"52863","Nation":null},{"Id":5917,"Name":"Abbey Stadium","NationId":579,"Capacity":"9.018","Town":"Cambridge","Latitude":52.212104797363281,"Longitude":0.15414655208587646,"Teams":"52863","Nation":null},{"Id":8142,"Name":"Abdullah bin Khalifa Stadium","NationId":666,"Capacity":"10.221","Town":"Doha","Latitude":25.373081207275391,"Longitude":51.469146728515625,"Teams":"60675","Nation":null},{"Id":7982,"Name":"Abdullah bin Khalifa Stadium","NationId":666,"Capacity":"10.221","Town":"Doha","Latitude":25.373081207275391,"Longitude":51.469146728515625,"Teams":"60675","Nation":null},{"Id":6377,"Name":"Abe Lenstra Stadion","NationId":604,"Capacity":"26.100","Town":"Heerenveen","Latitude":52.958587646484375,"Longitude":5.936002254486084,"Teams":"48212","Nation":null},{"Id":3818,"Name":"Abe Lenstra Stadion","NationId":604,"Capacity":"26.100","Town":"Heerenveen","Latitude":52.958587646484375,"Longitude":5.936002254486084,"Teams":"48212","Nation":null},{"Id":4919,"Name":"ABT-Arena","NationId":586,"Capacity":"2.000","Town":"Durach","Latitude":47.699882507324219,"Longitude":10.328164100646973,"Teams":"60019","Nation":null},{"Id":5978,"Name":"Academy Stadium","NationId":579,"Capacity":"7.000","Town":"Manchester","Latitude":53.481109619140625,"Longitude":-2.1927781105041504,"Teams":"9580","Nation":null},{"Id":3944,"Name":"Academy Stadium","NationId":579,"Capacity":"7.000","Town":"Manchester","Latitude":53.481109619140625,"Longitude":-2.1927781105041504,"Teams":"9580","Nation":null},{"Id":3993,"Name":"Academy Stadium","NationId":614,"Capacity":"3.000","Town":"Krasnodar","Latitude":45.043388366699219,"Longitude":39.035560607910156,"Teams":null,"Nation":null},{"Id":4102,"Name":"Academy Stadium","NationId":579,"Capacity":"7.000","Town":"Manchester","Latitude":53.481109619140625,"Longitude":-2.1927781105041504,"Teams":"9580","Nation":null},{"Id":6792,"Name":"Academy Stadium","NationId":614,"Capacity":"3.000","Town":"Krasnodar","Latitude":45.043388366699219,"Longitude":39.035560607910156,"Teams":null,"Nation":null},{"Id":6774,"Name":"Achmat Arena","NationId":614,"Capacity":"30.597","Town":"Grozniy","Latitude":43.323177337646484,"Longitude":45.745254516601562,"Teams":"6415","Nation":null},{"Id":6819,"Name":"Achmat Arena","NationId":614,"Capacity":"30.597","Town":"Grozniy","Latitude":43.323177337646484,"Longitude":45.745254516601562,"Teams":"6415","Nation":null},{"Id":5918,"Name":"Adams Park","NationId":579,"Capacity":"10.000","Town":"Wycombe","Latitude":51.63055419921875,"Longitude":-0.800204873085022,"Teams":"52869","Nation":null},{"Id":5750,"Name":"Adams Park","NationId":579,"Capacity":"10.000","Town":"Wycombe","Latitude":51.63055419921875,"Longitude":-0.800204873085022,"Teams":"52869","Nation":null},{"Id":5500,"Name":"ADM-Sportpark Kunstrasenplatz","NationId":586,"Capacity":"???","Town":"Stuttgart","Latitude":48.747039794921875,"Longitude":9.1879901885986328,"Teams":null,"Nation":null},{"Id":5606,"Name":"ADM-Sportpark Kunstrasenplatz","NationId":586,"Capacity":"???","Town":"Stuttgart","Latitude":48.747039794921875,"Longitude":9.1879901885986328,"Teams":null,"Nation":null},{"Id":5010,"Name":"Adolf-Jäger-Kampfbahn","NationId":586,"Capacity":"8.000","Town":"Hamburg","Latitude":53.555492401123047,"Longitude":9.91142749786377,"Teams":"60074","Nation":null},{"Id":5193,"Name":"Adolf-Jäger-Kampfbahn","NationId":586,"Capacity":"8.000","Town":"Hamburg","Latitude":53.555492401123047,"Longitude":9.91142749786377,"Teams":"60074","Nation":null},{"Id":5246,"Name":"Adolf-Jäger-Kampfbahn","NationId":586,"Capacity":"8.000","Town":"Hamburg","Latitude":53.555492401123047,"Longitude":9.91142749786377,"Teams":"60074","Nation":null},{"Id":5979,"Name":"AE Elite Football Performance Centre","NationId":579,"Capacity":"???","Town":"Lancing","Latitude":50.831333160400391,"Longitude":-0.3107219934463501,"Teams":"59820","Nation":null},{"Id":6007,"Name":"AE Elite Football Performance Centre","NationId":579,"Capacity":"???","Town":"Lancing","Latitude":50.831333160400391,"Longitude":-0.3107219934463501,"Teams":"59820","Nation":null},{"Id":4208,"Name":"AE Elite Football Performance Centre","NationId":579,"Capacity":"???","Town":"Lancing","Latitude":50.831333160400391,"Longitude":-0.3107219934463501,"Teams":"59820","Nation":null},{"Id":4384,"Name":"AEK Arena","NationId":563,"Capacity":"7.400","Town":"Larnaca","Latitude":0.0,"Longitude":0.0,"Teams":null,"Nation":null},{"Id":3666,"Name":"AEK Arena","NationId":563,"Capacity":"7.400","Town":"Larnaca","Latitude":0.0,"Longitude":0.0,"Teams":null,"Nation":null},{"Id":5671,"Name":"AEL Arena","NationId":589,"Capacity":"16.118","Town":"Larisa","Latitude":0.0,"Longitude":0.0,"Teams":null,"Nation":null},{"Id":5634,"Name":"AEL Arena","NationId":589,"Capacity":"16.118","Town":"Larisa","Latitude":0.0,"Longitude":0.0,"Teams":null,"Nation":null},{"Id":5651,"Name":"AEL Arena","NationId":589,"Capacity":"16.118","Town":"Larisa","Latitude":0.0,"Longitude":0.0,"Teams":null,"Nation":null},{"Id":3667,"Name":"AFAS Stadion","NationId":604,"Capacity":"17.023","Town":"Alkmaar","Latitude":52.612766265869141,"Longitude":4.742154598236084,"Teams":"1454","Nation":null},{"Id":6378,"Name":"AFAS Stadion","NationId":604,"Capacity":"17.023","Town":"Alkmaar","Latitude":52.612766265869141,"Longitude":4.742154598236084,"Teams":"1454","Nation":null},{"Id":6395,"Name":"AFAS Stadion","NationId":604,"Capacity":"17.023","Town":"Alkmaar","Latitude":52.612766265869141,"Longitude":4.742154598236084,"Teams":"1454","Nation":null},{"Id":6434,"Name":"AFAS Stadion","NationId":604,"Capacity":"17.023","Town":"Alkmaar","Latitude":52.612766265869141,"Longitude":4.742154598236084,"Teams":"1454","Nation":null},{"Id":6396,"Name":"AFAS Trainingscomplex","NationId":604,"Capacity":"1.000","Town":"Wijdewormer","Latitude":0.0,"Longitude":0.0,"Teams":"60264","Nation":null},{"Id":6561,"Name":"AFAS Trainingscomplex","NationId":604,"Capacity":"1.000","Town":"Wijdewormer","Latitude":0.0,"Longitude":0.0,"Teams":"60264","Nation":null},{"Id":4338,"Name":"AFAS-Stadion Achter de Kazerne","NationId":529,"Capacity":"18.477","Town":"Mechelen","Latitude":51.037223815917969,"Longitude":4.48638916015625,"Teams":"3002","Nation":null},{"Id":7370,"Name":"Afyon Yeni Şehir","NationId":627,"Capacity":"???","Town":"Afyonkarahisar","Latitude":0.0,"Longitude":0.0,"Teams":null,"Nation":null},{"Id":7348,"Name":"Afyon Yeni Şehir","NationId":627,"Capacity":"???","Town":"Afyonkarahisar","Latitude":0.0,"Longitude":0.0,"Teams":null,"Nation":null},{"Id":4443,"Name":"AGF’s anlæg Fredensvang","NationId":571,"Capacity":"1.000","Town":"Viby","Latitude":56.124904632568359,"Longitude":10.177133560180664,"Teams":null,"Nation":null},{"Id":4407,"Name":"AGF’s anlæg Fredensvang","NationId":571,"Capacity":"1.000","Town":"Viby","Latitude":56.124904632568359,"Longitude":10.177133560180664,"Teams":null,"Nation":null},{"Id":6217,"Name":"Agostino Di Bartolomei","NationId":596,"Capacity":"1.500","Town":"Roma","Latitude":41.746829986572266,"Longitude":12.466338157653809,"Teams":"59621","Nation":null},{"Id":6361,"Name":"Ågotnes Stadion","NationId":608,"Capacity":"2.000","Town":"Ågotnes","Latitude":0.0,"Longitude":0.0,"Teams":null,"Nation":null},{"Id":8357,"Name":"Ahmed Zabana","NationId":488,"Capacity":"40.000","Town":"Oran","Latitude":35.683349609375,"Longitude":-0.6362910270690918,"Teams":"60628","Nation":null},{"Id":7371,"Name":"Ahmet Suat Özyazıcı","NationId":627,"Capacity":"7.900","Town":"Trabzon","Latitude":40.996742248535156,"Longitude":39.770851135253906,"Teams":"60523","Nation":null},{"Id":4100,"Name":"Ainslie Park Stadium","NationId":616,"Capacity":"???","Town":"Edinburgh","Latitude":0.0,"Longitude":0.0,"Teams":null,"Nation":null},{"Id":8117,"Name":"Aji Imbut","NationId":593,"Capacity":"35.000","Town":"Tenggarong","Latitude":-0.42845499515533447,"Longitude":117.00745391845703,"Teams":"25795","Nation":null},{"Id":8080,"Name":"Ajinomoto Stadium","NationId":598,"Capacity":"49.970","Town":"Tokyo","Latitude":35.664253234863281,"Longitude":139.52714538574219,"Teams":"2668","Nation":null},{"Id":4456,"Name":"Akademisk Boldklub Skovdiget","NationId":571,"Capacity":"???","Town":"Bagsværd","Latitude":55.762260437011719,"Longitude":12.43620491027832,"Teams":null,"Nation":null},{"Id":4421,"Name":"Akademisk Boldklub Skovdiget","NationId":571,"Capacity":"???","Town":"Bagsværd","Latitude":55.762260437011719,"Longitude":12.43620491027832,"Teams":null,"Nation":null},{"Id":4175,"Name":"Akdeniz Üniversiti-Stadion","NationId":627,"Capacity":"8.037","Town":"Antalya","Latitude":36.893741607666016,"Longitude":30.646839141845703,"Teams":null,"Nation":null},{"Id":4176,"Name":"Aker Stadion","NationId":608,"Capacity":"11.167","Town":"Molde","Latitude":62.733272552490234,"Longitude":7.14784049987793,"Teams":"59661","Nation":null},{"Id":3668,"Name":"Aker Stadion","NationId":608,"Capacity":"11.167","Town":"Molde","Latitude":62.733272552490234,"Longitude":7.14784049987793,"Teams":"59661","Nation":null},{"Id":6344,"Name":"Aker Stadion","NationId":608,"Capacity":"11.167","Town":"Molde","Latitude":62.733272552490234,"Longitude":7.14784049987793,"Teams":"59661","Nation":null},{"Id":7372,"Name":"Akhisar Arena","NationId":627,"Capacity":"12.139","Town":"Akhisar","Latitude":38.920833587646484,"Longitude":27.811111450195312,"Teams":"59646","Nation":null},{"Id":7329,"Name":"Akhisar Arena","NationId":627,"Capacity":"12.139","Town":"Akhisar","Latitude":38.920833587646484,"Longitude":27.811111450195312,"Teams":"59646","Nation":null},{"Id":3609,"Name":"Akhisar Arena","NationId":627,"Capacity":"12.139","Town":"Akhisar","Latitude":38.920833587646484,"Longitude":27.811111450195312,"Teams":"59646","Nation":null},{"Id":8234,"Name":"AKRON","NationId":602,"Capacity":"49.500","Town":"Zapopan","Latitude":20.681835174560547,"Longitude":-103.46260070800781,"Teams":"60735","Nation":null},{"Id":8212,"Name":"AKRON","NationId":602,"Capacity":"49.500","Town":"Zapopan","Latitude":20.681835174560547,"Longitude":-103.46260070800781,"Teams":"60735","Nation":null},{"Id":7373,"Name":"Aktepe","NationId":627,"Capacity":"7.000","Town":"Ankara","Latitude":39.999153137207031,"Longitude":32.880733489990234,"Teams":"60524","Nation":null},{"Id":8143,"Name":"Al Ahli SC Stadium","NationId":666,"Capacity":"20.000","Town":"Doha","Latitude":25.251848220825195,"Longitude":51.535335540771484,"Teams":null,"Nation":null},{"Id":7983,"Name":"Al Ahli SC Stadium","NationId":666,"Capacity":"20.000","Town":"Doha","Latitude":25.251848220825195,"Longitude":51.535335540771484,"Teams":null,"Nation":null},{"Id":8144,"Name":"Al Gharafa","NationId":666,"Capacity":"25.000","Town":"Doha","Latitude":25.344747543334961,"Longitude":51.440547943115234,"Teams":"60727","Nation":null},{"Id":8305,"Name":"Al Lang Stadium","NationId":630,"Capacity":"7.227","Town":"Saint Petersburg, FL","Latitude":27.76793098449707,"Longitude":-82.63311767578125,"Teams":"60754","Nation":null},{"Id":7984,"Name":"Al Maktoum Stadium","NationId":675,"Capacity":"15.000","Town":"Dubai","Latitude":25.239971160888672,"Longitude":55.313003540039062,"Teams":"60654","Nation":null},{"Id":7931,"Name":"Al Maktoum Stadium","NationId":675,"Capacity":"15.000","Town":"Dubai","Latitude":25.239971160888672,"Longitude":55.313003540039062,"Teams":"60654","Nation":null},{"Id":7932,"Name":"Al Nahyan Stadium","NationId":675,"Capacity":"12.000","Town":"Abu Dhabi","Latitude":24.469324111938477,"Longitude":54.375316619873047,"Teams":"37861","Nation":null},{"Id":7985,"Name":"Al Nahyan Stadium","NationId":675,"Capacity":"12.000","Town":"Abu Dhabi","Latitude":24.469324111938477,"Longitude":54.375316619873047,"Teams":"37861","Nation":null},{"Id":4473,"Name":"Albert-Kuntz-Sportpark","NationId":586,"Capacity":"8.088","Town":"Nordhausen","Latitude":51.521152496337891,"Longitude":10.782961845397949,"Teams":"59908","Nation":null},{"Id":4495,"Name":"Albert-Kuntz-Sportpark","NationId":586,"Capacity":"8.088","Town":"Nordhausen","Latitude":51.521152496337891,"Longitude":10.782961845397949,"Teams":"59908","Nation":null},{"Id":4511,"Name":"Albert-Kuntz-Sportpark","NationId":586,"Capacity":"8.088","Town":"Nordhausen","Latitude":51.521152496337891,"Longitude":10.782961845397949,"Teams":"59908","Nation":null},{"Id":5087,"Name":"Albert-Kuntz-Sportpark","NationId":586,"Capacity":"8.088","Town":"Nordhausen","Latitude":51.521152496337891,"Longitude":10.782961845397949,"Teams":"59908","Nation":null},{"Id":4822,"Name":"Albert-Kuntz-Sportpark","NationId":586,"Capacity":"8.088","Town":"Nordhausen","Latitude":51.521152496337891,"Longitude":10.782961845397949,"Teams":"59908","Nation":null},{"Id":5088,"Name":"Albert-Kuntz-Sportpark Kunstrasenplatz","NationId":586,"Capacity":"???","Town":"Nordhausen","Latitude":51.520206451416016,"Longitude":10.78562068939209,"Teams":null,"Nation":null},{"Id":8660,"Name":"Alberto Gallardo","NationId":610,"Capacity":"18.000","Town":"Lima","Latitude":-12.037961959838867,"Longitude":-77.045181274414062,"Teams":"60611","Nation":null},{"Id":8603,"Name":"Alberto Grisales","NationId":553,"Capacity":"14.000","Town":"Rionegro","Latitude":0.0,"Longitude":0.0,"Teams":null,"Nation":null},{"Id":8465,"Name":"Alberto Grisales","NationId":553,"Capacity":"14.000","Town":"Rionegro","Latitude":0.0,"Longitude":0.0,"Teams":null,"Nation":null},{"Id":6057,"Name":"Alberto Picco","NationId":596,"Capacity":"10.336","Town":"La Spezia","Latitude":44.102218627929688,"Longitude":9.808924674987793,"Teams":"2884","Nation":null},{"Id":6076,"Name":"Alberto Picco","NationId":596,"Capacity":"10.336","Town":"La Spezia","Latitude":44.102218627929688,"Longitude":9.808924674987793,"Teams":"2884","Nation":null},{"Id":7438,"Name":"Alcufer Stadion","NationId":592,"Capacity":"4.500","Town":"Györ","Latitude":0.0,"Longitude":0.0,"Teams":null,"Nation":null},{"Id":4389,"Name":"Aldo Drosina","NationId":559,"Capacity":"10.000","Town":"Pula","Latitude":44.861648559570312,"Longitude":13.851399421691895,"Teams":"59898","Nation":null},{"Id":8632,"Name":"Alejandro Serrano Aguilar","NationId":641,"Capacity":"22.000","Town":"Cuenca","Latitude":-2.9066212177276611,"Longitude":-79.005767822265625,"Teams":"60600","Nation":null},{"Id":8661,"Name":"Alejandro Villanueva","NationId":610,"Capacity":"35.000","Town":"Lima","Latitude":-12.068552017211914,"Longitude":-77.022933959960938,"Teams":"5735","Nation":null},{"Id":8680,"Name":"Alejandro Villanueva","NationId":610,"Capacity":"35.000","Town":"Lima","Latitude":-12.068552017211914,"Longitude":-77.022933959960938,"Teams":"5735","Nation":null},{"Id":5822,"Name":"Alexandra Stadium","NationId":579,"Capacity":"10.153","Town":"Crewe","Latitude":53.087474822998047,"Longitude":-2.435767650604248,"Teams":"52746","Nation":null},{"Id":5775,"Name":"Alexandra Stadium","NationId":579,"Capacity":"10.153","Town":"Crewe","Latitude":53.087474822998047,"Longitude":-2.435767650604248,"Teams":"52746","Nation":null},{"Id":5919,"Name":"Alexandra Stadium","NationId":579,"Capacity":"10.153","Town":"Crewe","Latitude":53.087474822998047,"Longitude":-2.435767650604248,"Teams":"52746","Nation":null},{"Id":8344,"Name":"Alexandria Stadium","NationId":574,"Capacity":"19.676","Town":"Alexandria","Latitude":31.197053909301758,"Longitude":29.913211822509766,"Teams":"60620","Nation":null},{"Id":8368,"Name":"Alexandria Stadium","NationId":574,"Capacity":"19.676","Town":"Alexandria","Latitude":31.197053909301758,"Longitude":29.913211822509766,"Teams":"60620","Nation":null},{"Id":6345,"Name":"Alfheim Stadion","NationId":608,"Capacity":"7.500","Town":"Tromsø","Latitude":69.648895263671875,"Longitude":18.934577941894531,"Teams":"60243","Nation":null},{"Id":8604,"Name":"Alfonso López","NationId":553,"Capacity":"28.000","Town":"Bucaramanga","Latitude":0.0,"Longitude":0.0,"Teams":null,"Nation":null},{"Id":5089,"Name":"Alfred-Kunze-Sportpark","NationId":586,"Capacity":"18.000","Town":"Leipzig","Latitude":51.358242034912109,"Longitude":12.307621955871582,"Teams":"59911","Nation":null},{"Id":4753,"Name":"Alfred-Kunze-Sportpark","NationId":586,"Capacity":"18.000","Town":"Leipzig","Latitude":51.358242034912109,"Longitude":12.307621955871582,"Teams":"59911","Nation":null},{"Id":8532,"Name":"Alfredo Beranger","NationId":492,"Capacity":"21.000","Town":"Turdera","Latitude":0.0,"Longitude":0.0,"Teams":null,"Nation":null},{"Id":8558,"Name":"Alfredo Beranger","NationId":492,"Capacity":"21.000","Town":"Turdera","Latitude":0.0,"Longitude":0.0,"Teams":null,"Nation":null},{"Id":7042,"Name":"Alfredo Di Stéfano","NationId":623,"Capacity":"9.000","Town":"Madrid","Latitude":40.4769287109375,"Longitude":-3.6142539978027344,"Teams":"59800","Nation":null},{"Id":4103,"Name":"Alfredo Di Stéfano","NationId":623,"Capacity":"9.000","Town":"Madrid","Latitude":40.4769287109375,"Longitude":-3.6142539978027344,"Teams":"59800","Nation":null},{"Id":8235,"Name":"Alfredo Pistache Torres","NationId":602,"Capacity":"???","Town":"Zapopan","Latitude":20.713361740112305,"Longitude":-103.40287780761719,"Teams":null,"Nation":null},{"Id":8256,"Name":"Alfredo Pistache Torres","NationId":602,"Capacity":"???","Town":"Zapopan","Latitude":20.713361740112305,"Longitude":-103.40287780761719,"Teams":null,"Nation":null},{"Id":8533,"Name":"Alfredo Terrera","NationId":492,"Capacity":"15.000","Town":"Santiago del Estero","Latitude":0.0,"Longitude":0.0,"Teams":null,"Nation":null},{"Id":8685,"Name":"Alfredo Victor Viera","NationId":724,"Capacity":"12.500","Town":"Montevideo","Latitude":-34.916595458984375,"Longitude":-56.166820526123047,"Teams":"60558","Nation":null},{"Id":8466,"Name":"Alfredo Victor Viera","NationId":724,"Capacity":"12.500","Town":"Montevideo","Latitude":-34.916595458984375,"Longitude":-56.166820526123047,"Teams":"60558","Nation":null},{"Id":5672,"Name":"Alkazar","NationId":589,"Capacity":"13.108","Town":"Larisa","Latitude":39.648780822753906,"Longitude":22.411773681640625,"Teams":"60172","Nation":null},{"Id":8145,"Name":"Al-Khor Stadium","NationId":666,"Capacity":"16.000","Town":"al-Khor","Latitude":25.679405212402344,"Longitude":51.492630004882812,"Teams":"60728","Nation":null},{"Id":4754,"Name":"Allianz Arena","NationId":586,"Capacity":"75.024","Town":"München","Latitude":48.218746185302734,"Longitude":11.624608039855957,"Teams":"59602","Nation":null},{"Id":4697,"Name":"Allianz Arena","NationId":586,"Capacity":"75.024","Town":"München","Latitude":48.218746185302734,"Longitude":11.624608039855957,"Teams":"59602","Nation":null},{"Id":3521,"Name":"Allianz Arena","NationId":586,"Capacity":"75.024","Town":"München","Latitude":48.218746185302734,"Longitude":11.624608039855957,"Teams":"59602","Nation":null},{"Id":3447,"Name":"Allianz Arena","NationId":586,"Capacity":"75.024","Town":"München","Latitude":48.218746185302734,"Longitude":11.624608039855957,"Teams":"59602","Nation":null},{"Id":8151,"Name":"Allianz Field","NationId":630,"Capacity":"19.400","Town":"Saint Paul, MN","Latitude":44.952777862548828,"Longitude":-93.165000915527344,"Teams":null,"Nation":null},{"Id":8282,"Name":"Allianz Field","NationId":630,"Capacity":"19.400","Town":"Saint Paul, MN","Latitude":44.952777862548828,"Longitude":-93.165000915527344,"Teams":null,"Nation":null},{"Id":8424,"Name":"Allianz Parque","NationId":535,"Capacity":"43.600","Town":"São Paulo","Latitude":-23.527555465698242,"Longitude":-46.678417205810547,"Teams":"1081","Nation":null},{"Id":3354,"Name":"Allianz Riviera","NationId":585,"Capacity":"35.624","Town":"Nice","Latitude":43.705059051513672,"Longitude":7.192601203918457,"Teams":"49945","Nation":null},{"Id":4575,"Name":"Allianz Riviera","NationId":585,"Capacity":"35.624","Town":"Nice","Latitude":43.705059051513672,"Longitude":7.192601203918457,"Teams":"49945","Nation":null},{"Id":4666,"Name":"Allianz Riviera","NationId":585,"Capacity":"35.624","Town":"Nice","Latitude":43.705059051513672,"Longitude":7.192601203918457,"Teams":"49945","Nation":null},{"Id":4260,"Name":"Allianz Stadion","NationId":514,"Capacity":"28.000","Town":"Wien","Latitude":48.198204040527344,"Longitude":16.266288757324219,"Teams":"59647","Nation":null},{"Id":3669,"Name":"Allianz Stadion","NationId":514,"Capacity":"28.000","Town":"Wien","Latitude":48.198204040527344,"Longitude":16.266288757324219,"Teams":"59647","Nation":null},{"Id":3610,"Name":"Allianz Stadion","NationId":514,"Capacity":"28.000","Town":"Wien","Latitude":48.198204040527344,"Longitude":16.266288757324219,"Teams":"59647","Nation":null},{"Id":3522,"Name":"Allianz Stadium","NationId":596,"Capacity":"41.254","Town":"Torino","Latitude":45.109592437744141,"Longitude":7.6412467956542969,"Teams":"2405","Nation":null},{"Id":3365,"Name":"Allianz Stadium","NationId":596,"Capacity":"41.254","Town":"Torino","Latitude":45.109592437744141,"Longitude":7.6412467956542969,"Teams":"2405","Nation":null},{"Id":8014,"Name":"Allianz Stadium","NationId":510,"Capacity":"45.500","Town":"Sydney","Latitude":-33.889110565185547,"Longitude":151.22531127929688,"Teams":"10575","Nation":null},{"Id":6040,"Name":"Allianz Stadium","NationId":596,"Capacity":"41.254","Town":"Torino","Latitude":45.109592437744141,"Longitude":7.6412467956542969,"Teams":"2405","Nation":null},{"Id":7257,"Name":"Allmend Brunau","NationId":626,"Capacity":"1.500","Town":"Zürich","Latitude":47.353828430175781,"Longitude":8.52270793914795,"Teams":null,"Nation":null},{"Id":8534,"Name":"Almagro","NationId":492,"Capacity":"19.000","Town":"José Ingenieros (Buenos Aires)","Latitude":-34.614112854003906,"Longitude":-58.534889221191406,"Teams":"8848","Nation":null},{"Id":5105,"Name":"Alois-Omlor-Sportpark","NationId":586,"Capacity":"???","Town":"Homburg","Latitude":49.364540100097656,"Longitude":7.3222870826721191,"Teams":null,"Nation":null},{"Id":4733,"Name":"Alpenbauer Sportpark","NationId":586,"Capacity":"15.053","Town":"Unterhaching","Latitude":48.073772430419922,"Longitude":11.615747451782227,"Teams":"50082","Nation":null},{"Id":5607,"Name":"Alpenbauer Sportpark","NationId":586,"Capacity":"15.053","Town":"Unterhaching","Latitude":48.073772430419922,"Longitude":11.615747451782227,"Teams":"50082","Nation":null},{"Id":8343,"Name":"Al-Salam Stadium","NationId":574,"Capacity":"30.000","Town":"Al-Salam City","Latitude":0.0,"Longitude":0.0,"Teams":"11148","Nation":null},{"Id":8367,"Name":"Al-Salam Stadium","NationId":574,"Capacity":"30.000","Town":"Al-Salam City","Latitude":30.175243,"Longitude":31.43528,"Teams":"11148","Nation":null},{"Id":7107,"Name":"Álvarez Claro","NationId":623,"Capacity":"10.000","Town":"Melilla","Latitude":35.285190582275391,"Longitude":-2.9494330883026123,"Teams":"60410","Nation":null},{"Id":6989,"Name":"Álvarez Claro","NationId":623,"Capacity":"10.000","Town":"Melilla","Latitude":35.285190582275391,"Longitude":-2.9494330883026123,"Teams":"60410","Nation":null},{"Id":4104,"Name":"Alvogenvöllurinn","NationId":859,"Capacity":"2.801","Town":"Reykjavík","Latitude":64.1463394165039,"Longitude":-21.966712951660156,"Teams":"59801","Nation":null},{"Id":7939,"Name":"Al-Wakrah Stadium","NationId":666,"Capacity":"20.000","Town":"al-Wakra","Latitude":25.180263519287109,"Longitude":51.59649658203125,"Teams":"60659","Nation":null},{"Id":8081,"Name":"Alwin Stadium","NationId":598,"Capacity":"20.396","Town":"Matsumoto","Latitude":36.179660797119141,"Longitude":137.91712951660156,"Teams":"60710","Nation":null},{"Id":3670,"Name":"Alytus Stadium","NationId":601,"Capacity":"4.000","Town":"Alytus","Latitude":54.392070770263672,"Longitude":24.055177688598633,"Teams":null,"Nation":null},{"Id":5407,"Name":"Am alten Galgen","NationId":586,"Capacity":"???","Town":"Wachenheim","Latitude":49.441230773925781,"Longitude":8.1909475326538086,"Teams":null,"Nation":null},{"Id":4992,"Name":"Am Bruchwald","NationId":586,"Capacity":"3.000","Town":"Bietigheim-Bissingen","Latitude":48.941848754882812,"Longitude":9.1152353286743164,"Teams":"60061","Nation":null},{"Id":5608,"Name":"Am Halberg","NationId":586,"Capacity":"5.000","Town":"Taunusstein","Latitude":50.159919738769531,"Longitude":8.183903694152832,"Teams":"59958","Nation":null},{"Id":4937,"Name":"Am Panzenberg","NationId":586,"Capacity":"8.000","Town":"Bremen","Latitude":53.086685180664062,"Longitude":8.79439926147461,"Teams":"60031","Nation":null},{"Id":4880,"Name":"Am Schönbusch","NationId":586,"Capacity":"9.050","Town":"Aschaffenburg","Latitude":49.970317840576172,"Longitude":9.129939079284668,"Teams":"50078","Nation":null},{"Id":5705,"Name":"Amex Stadium","NationId":579,"Capacity":"30.750","Town":"Brighton","Latitude":50.861820220947266,"Longitude":-0.083278000354766846,"Teams":"60174","Nation":null},{"Id":5823,"Name":"Amex Stadium","NationId":579,"Capacity":"30.750","Town":"Brighton","Latitude":50.861820220947266,"Longitude":-0.083278000354766846,"Teams":"60174","Nation":null},{"Id":5920,"Name":"Amex Stadium","NationId":579,"Capacity":"30.750","Town":"Brighton","Latitude":50.861820220947266,"Longitude":-0.083278000354766846,"Teams":"60174","Nation":null},{"Id":5980,"Name":"Amex Stadium","NationId":579,"Capacity":"30.750","Town":"Brighton","Latitude":50.861820220947266,"Longitude":-0.083278000354766846,"Teams":"60174","Nation":null},{"Id":3819,"Name":"Amica","NationId":611,"Capacity":"5.296","Town":"Wronki","Latitude":52.718223571777344,"Longitude":16.37486457824707,"Teams":"2244","Nation":null},{"Id":3851,"Name":"Amica","NationId":611,"Capacity":"5.296","Town":"Wronki","Latitude":52.718223571777344,"Longitude":16.37486457824707,"Teams":"2244","Nation":null},{"Id":5798,"Name":"Amlin Stadium","NationId":579,"Capacity":"4.151","Town":"Braintree","Latitude":51.875259399414062,"Longitude":0.57287400960922241,"Teams":null,"Nation":null},{"Id":3986,"Name":"Ammochostos-Amberia Stadium","NationId":563,"Capacity":"4.000","Town":"Larnaca","Latitude":34.930007934570312,"Longitude":33.613273620605469,"Teams":"1663","Nation":null},{"Id":4385,"Name":"Ammochostos-Amberia Stadium","NationId":563,"Capacity":"4.000","Town":"Larnaca","Latitude":34.930007934570312,"Longitude":33.613273620605469,"Teams":"1663","Nation":null},{"Id":4512,"Name":"An der Alten Försterei","NationId":586,"Capacity":"22.012","Town":"Berlin","Latitude":52.457389831542969,"Longitude":13.56812572479248,"Teams":"59921","Nation":null},{"Id":5189,"Name":"An der Alten Försterei","NationId":586,"Capacity":"22.012","Town":"Berlin","Latitude":52.457389831542969,"Longitude":13.56812572479248,"Teams":"59921","Nation":null},{"Id":4715,"Name":"An der Alten Försterei","NationId":586,"Capacity":"22.012","Town":"Berlin","Latitude":52.457389831542969,"Longitude":13.56812572479248,"Teams":"59921","Nation":null},{"Id":4804,"Name":"An der Anmerke","NationId":586,"Capacity":"3.000","Town":"Barsinghausen","Latitude":52.286464691162109,"Longitude":9.51009750366211,"Teams":"59974","Nation":null},{"Id":5070,"Name":"An der Eishalle","NationId":586,"Capacity":"???","Town":"Malchow","Latitude":53.471256256103516,"Longitude":12.406035423278809,"Teams":null,"Nation":null},{"Id":4976,"Name":"An der Hasenweide","NationId":586,"Capacity":"2.000","Town":"Vechta","Latitude":52.733230590820312,"Longitude":8.3128013610839844,"Teams":null,"Nation":null},{"Id":7312,"Name":"Ancien Stand","NationId":626,"Capacity":"???","Town":"Sion","Latitude":0.0,"Longitude":0.0,"Teams":null,"Nation":null},{"Id":3820,"Name":"Anđelko Herjavec","NationId":559,"Capacity":"9.800","Town":"Varazdin","Latitude":46.313442230224609,"Longitude":16.341712951660156,"Teams":"59724","Nation":null},{"Id":8572,"Name":"Andrés Guacurarí","NationId":492,"Capacity":"15.000","Town":"Garupá","Latitude":0.0,"Longitude":0.0,"Teams":null,"Nation":null},{"Id":6726,"Name":"Andrův stadión","NationId":567,"Capacity":"12.541","Town":"Olomouc","Latitude":49.600139617919922,"Longitude":17.248252868652344,"Teams":"1941","Nation":null},{"Id":3671,"Name":"Andrův stadión","NationId":567,"Capacity":"12.541","Town":"Olomouc","Latitude":49.600139617919922,"Longitude":17.248252868652344,"Teams":"1941","Nation":null},{"Id":3366,"Name":"Andrův stadión","NationId":567,"Capacity":"12.541","Town":"Olomouc","Latitude":49.600139617919922,"Longitude":17.248252868652344,"Teams":"1941","Nation":null},{"Id":4105,"Name":"Andrův stadión","NationId":567,"Capacity":"12.541","Town":"Olomouc","Latitude":49.600139617919922,"Longitude":17.248252868652344,"Teams":"1941","Nation":null},{"Id":7043,"Name":"Anexo Estadio de Gran Canaria","NationId":623,"Capacity":"500","Town":"Las Palmas de Gran Canaria","Latitude":28.102569580078125,"Longitude":-15.4552640914917,"Teams":"60418","Nation":null},{"Id":7044,"Name":"Anexos José Zorrilla","NationId":623,"Capacity":"1.500","Town":"Valladolid","Latitude":41.644046783447266,"Longitude":-4.76304292678833,"Teams":null,"Nation":null},{"Id":7940,"Name":"ANFA Complex","NationId":633,"Capacity":"4.000","Town":"Lalitpur","Latitude":0.0,"Longitude":0.0,"Teams":null,"Nation":null},{"Id":3523,"Name":"Anfield","NationId":579,"Capacity":"54.074","Town":"Liverpool","Latitude":53.430820465087891,"Longitude":-2.9608368873596191,"Teams":"59617","Nation":null},{"Id":5981,"Name":"Anfield","NationId":579,"Capacity":"54.074","Town":"Liverpool","Latitude":53.430820465087891,"Longitude":-2.9608368873596191,"Teams":"59617","Nation":null},{"Id":5921,"Name":"Anfield","NationId":579,"Capacity":"54.074","Town":"Liverpool","Latitude":53.430820465087891,"Longitude":-2.9608368873596191,"Teams":"59617","Nation":null},{"Id":5706,"Name":"Anfield","NationId":579,"Capacity":"54.074","Town":"Liverpool","Latitude":53.430820465087891,"Longitude":-2.9608368873596191,"Teams":"59617","Nation":null},{"Id":6077,"Name":"Angelo Massimino","NationId":596,"Capacity":"23.420","Town":"Catania","Latitude":37.5157356262207,"Longitude":15.071589469909668,"Teams":"2440","Nation":null},{"Id":6163,"Name":"Angelo Massimino","NationId":596,"Capacity":"23.420","Town":"Catania","Latitude":37.5157356262207,"Longitude":15.071589469909668,"Teams":"2440","Nation":null},{"Id":6183,"Name":"Angelo Massimino","NationId":596,"Capacity":"23.420","Town":"Catania","Latitude":37.5157356262207,"Longitude":15.071589469909668,"Teams":"2440","Nation":null},{"Id":6750,"Name":"Anghel Iordănescu","NationId":613,"Capacity":"4.600","Town":"Voluntari","Latitude":0.0,"Longitude":0.0,"Teams":null,"Nation":null},{"Id":6990,"Name":"Anoeta","NationId":623,"Capacity":"32.076","Town":"San Sebastián","Latitude":43.301368713378906,"Longitude":-1.9735721349716187,"Teams":"2056","Nation":null},{"Id":6946,"Name":"Anoeta","NationId":623,"Capacity":"32.076","Town":"San Sebastián","Latitude":43.301368713378906,"Longitude":-1.9735721349716187,"Teams":"2056","Nation":null},{"Id":7374,"Name":"Antakya Atatürk Stadyumu","NationId":627,"Capacity":"6.150","Town":"Antakya","Latitude":0.0,"Longitude":0.0,"Teams":null,"Nation":null},{"Id":7349,"Name":"Antakya Atatürk Stadyumu","NationId":627,"Capacity":"6.150","Town":"Antakya","Latitude":0.0,"Longitude":0.0,"Teams":null,"Nation":null},{"Id":7375,"Name":"Antalya Arena","NationId":627,"Capacity":"32.537","Town":"Antalya","Latitude":36.888271331787109,"Longitude":30.668519973754883,"Teams":"2128","Nation":null},{"Id":7330,"Name":"Antalya Arena","NationId":627,"Capacity":"32.537","Town":"Antalya","Latitude":36.888271331787109,"Longitude":30.668519973754883,"Teams":"2128","Nation":null},{"Id":6256,"Name":"Antistadio Adriano Flacco","NationId":596,"Capacity":"???","Town":"Pescara","Latitude":0.0,"Longitude":0.0,"Teams":null,"Nation":null},{"Id":3557,"Name":"Anton Malatinsky","NationId":618,"Capacity":"18.448","Town":"Trnava","Latitude":48.37359619140625,"Longitude":17.591728210449219,"Teams":"59549","Nation":null},{"Id":3821,"Name":"Anton Malatinsky","NationId":618,"Capacity":"18.448","Town":"Trnava","Latitude":48.37359619140625,"Longitude":17.591728210449219,"Teams":"59549","Nation":null},{"Id":3611,"Name":"Anton Malatinsky","NationId":618,"Capacity":"18.448","Town":"Trnava","Latitude":48.37359619140625,"Longitude":17.591728210449219,"Teams":"59549","Nation":null},{"Id":3367,"Name":"Anton Malatinsky","NationId":618,"Capacity":"18.448","Town":"Trnava","Latitude":48.37359619140625,"Longitude":17.591728210449219,"Teams":"59549","Nation":null},{"Id":3467,"Name":"Anton Malatinsky","NationId":618,"Capacity":"18.448","Town":"Trnava","Latitude":48.37359619140625,"Longitude":17.591728210449219,"Teams":"59549","Nation":null},{"Id":3672,"Name":"Anton Malatinsky","NationId":618,"Capacity":"18.448","Town":"Trnava","Latitude":48.37359619140625,"Longitude":17.591728210449219,"Teams":"59549","Nation":null},{"Id":8645,"Name":"Antonio Aranda","NationId":663,"Capacity":"28.000","Town":"Ciudad del Este","Latitude":-25.526943206787109,"Longitude":-54.611942291259766,"Teams":"38836","Nation":null},{"Id":6663,"Name":"António Coimbra da Mota","NationId":612,"Capacity":"18.000","Town":"Estoril","Latitude":38.715847015380859,"Longitude":-9.4064130783081055,"Teams":"60344","Nation":null},{"Id":6644,"Name":"António Coimbra da Mota","NationId":612,"Capacity":"18.000","Town":"Estoril","Latitude":38.715847015380859,"Longitude":-9.4064130783081055,"Teams":"60344","Nation":null},{"Id":6700,"Name":"António Coimbra da Mota","NationId":612,"Capacity":"18.000","Town":"Estoril","Latitude":38.715847015380859,"Longitude":-9.4064130783081055,"Teams":"60344","Nation":null},{"Id":7085,"Name":"Antonio Puchades","NationId":623,"Capacity":"3.000","Town":"Paterna","Latitude":39.543075561523438,"Longitude":-0.454584002494812,"Teams":"59802","Nation":null},{"Id":4106,"Name":"Antonio Puchades","NationId":623,"Capacity":"3.000","Town":"Paterna","Latitude":39.543075561523438,"Longitude":-0.454584002494812,"Teams":"59802","Nation":null},{"Id":3673,"Name":"Antonis Papadopoulos","NationId":563,"Capacity":"10.000","Town":"Larnaca","Latitude":34.9373893737793,"Longitude":33.620883941650391,"Teams":"59662","Nation":null},{"Id":8015,"Name":"ANZ Stadium","NationId":510,"Capacity":"83.500","Town":"Sydney","Latitude":-33.847122192382812,"Longitude":151.06341552734375,"Teams":"60688","Nation":null},{"Id":6775,"Name":"Anzhi Arena","NationId":614,"Capacity":"30.000","Town":"Kaspiysk","Latitude":42.907901763916016,"Longitude":47.618587493896484,"Teams":"60361","Nation":null},{"Id":3945,"Name":"AOK Stadion","NationId":586,"Capacity":"5.200","Town":"Wolfsburg","Latitude":52.434577941894531,"Longitude":10.807511329650879,"Teams":"48274","Nation":null},{"Id":5309,"Name":"AOK Stadion","NationId":586,"Capacity":"5.200","Town":"Wolfsburg","Latitude":52.434577941894531,"Longitude":10.807511329650879,"Teams":"48274","Nation":null},{"Id":5348,"Name":"AOK Stadion","NationId":586,"Capacity":"5.200","Town":"Wolfsburg","Latitude":52.434577941894531,"Longitude":10.807511329650879,"Teams":"48274","Nation":null},{"Id":5447,"Name":"AOK Stadion","NationId":586,"Capacity":"5.200","Town":"Wolfsburg","Latitude":52.434577941894531,"Longitude":10.807511329650879,"Teams":"48274","Nation":null},{"Id":4805,"Name":"AOK Stadion","NationId":586,"Capacity":"5.200","Town":"Wolfsburg","Latitude":52.434577941894531,"Longitude":10.807511329650879,"Teams":"48274","Nation":null},{"Id":5425,"Name":"Apollinarisstadion","NationId":586,"Capacity":"4.558","Town":"Bad Neuenahr-Ahrweiler","Latitude":50.54351806640625,"Longitude":7.1512198448181152,"Teams":"60161","Nation":null},{"Id":5635,"Name":"Apostolos Nikolaidis","NationId":589,"Capacity":"16.620","Town":"Athen","Latitude":37.987232208251953,"Longitude":23.754131317138672,"Teams":"1593","Nation":null},{"Id":8369,"Name":"Arab Contractors Stadium","NationId":574,"Capacity":"35.000","Town":"Cairo","Latitude":30.051166534423828,"Longitude":31.297000885009766,"Teams":"60633","Nation":null},{"Id":6346,"Name":"Åråsen Stadion","NationId":608,"Capacity":"12.500","Town":"Lillestrøm","Latitude":59.962795257568359,"Longitude":11.063554763793945,"Teams":"59663","Nation":null},{"Id":3946,"Name":"Åråsen Stadion","NationId":608,"Capacity":"12.500","Town":"Lillestrøm","Latitude":59.962795257568359,"Longitude":11.063554763793945,"Teams":"59663","Nation":null},{"Id":3674,"Name":"Åråsen Stadion","NationId":608,"Capacity":"12.500","Town":"Lillestrøm","Latitude":59.962795257568359,"Longitude":11.063554763793945,"Teams":"59663","Nation":null},{"Id":6078,"Name":"Arechi","NationId":596,"Capacity":"37.245","Town":"Salerno","Latitude":40.645561218261719,"Longitude":14.82382869720459,"Teams":"60214","Nation":null},{"Id":6058,"Name":"Arechi","NationId":596,"Capacity":"37.245","Town":"Salerno","Latitude":40.645561218261719,"Longitude":14.82382869720459,"Teams":"60214","Nation":null},{"Id":6793,"Name":"Arena Baltika","NationId":614,"Capacity":"35.212","Town":"Kaliningrad","Latitude":54.697978973388672,"Longitude":20.533956527709961,"Teams":null,"Nation":null},{"Id":6820,"Name":"Arena Baltika","NationId":614,"Capacity":"35.212","Town":"Kaliningrad","Latitude":54.697978973388672,"Longitude":20.533956527709961,"Teams":null,"Nation":null},{"Id":3468,"Name":"Arena Baltika","NationId":614,"Capacity":"35.212","Town":"Kaliningrad","Latitude":54.697978973388672,"Longitude":20.533956527709961,"Teams":null,"Nation":null},{"Id":5046,"Name":"Arena Bresserberg","NationId":586,"Capacity":"5.000","Town":"Kleve","Latitude":51.784698486328125,"Longitude":6.1147112846374512,"Teams":"60094","Nation":null},{"Id":8467,"Name":"Arena Condá","NationId":535,"Capacity":"???","Town":"Chapecó","Latitude":-27.10413932800293,"Longitude":-52.606998443603516,"Teams":"56628","Nation":null},{"Id":8468,"Name":"Arena Corinthians","NationId":535,"Capacity":"63.267","Town":"São Paulo","Latitude":-23.545530319213867,"Longitude":-46.473373413085938,"Teams":"60535","Nation":null},{"Id":8417,"Name":"Arena Corinthians","NationId":535,"Capacity":"63.267","Town":"São Paulo","Latitude":-23.545530319213867,"Longitude":-46.473373413085938,"Teams":"60535","Nation":null},{"Id":6776,"Name":"Arena CSKA","NationId":614,"Capacity":"30.000","Town":"Moskva","Latitude":55.791389465332031,"Longitude":37.516109466552734,"Teams":"59618","Nation":null},{"Id":3524,"Name":"Arena CSKA","NationId":614,"Capacity":"30.000","Town":"Moskva","Latitude":55.791389465332031,"Longitude":37.516109466552734,"Teams":"59618","Nation":null},{"Id":8425,"Name":"Arena da Baixada","NationId":535,"Capacity":"41.456","Town":"Curitiba","Latitude":-25.448286056518555,"Longitude":-49.276954650878906,"Teams":"60540","Nation":null},{"Id":8426,"Name":"Arena do Grêmio","NationId":535,"Capacity":"55.662","Town":"Pôrto Alegre","Latitude":-29.973443984985352,"Longitude":-51.194404602050781,"Teams":"60536","Nation":null},{"Id":8418,"Name":"Arena do Grêmio","NationId":535,"Capacity":"55.662","Town":"Pôrto Alegre","Latitude":-29.973443984985352,"Longitude":-51.194404602050781,"Teams":"60536","Nation":null},{"Id":8419,"Name":"Arena Fonte Nova","NationId":535,"Capacity":"56.500","Town":"Salvador","Latitude":-12.978819847106934,"Longitude":-38.504356384277344,"Teams":"60537","Nation":null},{"Id":8469,"Name":"Arena Fonte Nova","NationId":535,"Capacity":"56.500","Town":"Salvador","Latitude":-12.978819847106934,"Longitude":-38.504356384277344,"Teams":"60537","Nation":null},{"Id":6079,"Name":"Arena Garibaldi (Romeo Anconetani)","NationId":596,"Capacity":"16.173","Town":"Pisa","Latitude":43.725315093994141,"Longitude":10.399994850158691,"Teams":"2899","Nation":null},{"Id":6184,"Name":"Arena Garibaldi (Romeo Anconetani)","NationId":596,"Capacity":"16.173","Town":"Pisa","Latitude":43.725315093994141,"Longitude":10.399994850158691,"Teams":"2899","Nation":null},{"Id":6127,"Name":"Arena Garibaldi (Romeo Anconetani)","NationId":596,"Capacity":"16.173","Town":"Pisa","Latitude":43.725315093994141,"Longitude":10.399994850158691,"Teams":"2899","Nation":null},{"Id":6211,"Name":"Arena Garibaldi (Romeo Anconetani)","NationId":596,"Capacity":"16.173","Town":"Pisa","Latitude":43.725315093994141,"Longitude":10.399994850158691,"Teams":"2899","Nation":null},{"Id":6777,"Name":"Arena Khimki","NationId":614,"Capacity":"18.636","Town":"Khimki","Latitude":55.885353088378906,"Longitude":37.454349517822266,"Teams":"60362","Nation":null},{"Id":6794,"Name":"Arena Khimki","NationId":614,"Capacity":"18.636","Town":"Khimki","Latitude":55.885353088378906,"Longitude":37.454349517822266,"Teams":"60362","Nation":null},{"Id":6821,"Name":"Arena Khimki","NationId":614,"Capacity":"18.636","Town":"Khimki","Latitude":55.885353088378906,"Longitude":37.454349517822266,"Teams":"60362","Nation":null},{"Id":3368,"Name":"Arena Kombëtare","NationId":678,"Capacity":"22.300","Town":"Tiranë","Latitude":41.318386077880859,"Longitude":19.823915481567383,"Teams":null,"Nation":null},{"Id":3369,"Name":"Arena Lviv","NationId":629,"Capacity":"34.915","Town":"Lviv","Latitude":49.77484130859375,"Longitude":24.027721405029297,"Teams":null,"Nation":null},{"Id":3469,"Name":"Arena Lviv","NationId":629,"Capacity":"34.915","Town":"Lviv","Latitude":49.77484130859375,"Longitude":24.027721405029297,"Teams":null,"Nation":null},{"Id":3486,"Name":"Arena Națională","NationId":613,"Capacity":"55.611","Town":"Bucuresti","Latitude":44.43719482421875,"Longitude":26.1524715423584,"Teams":"59613","Nation":null},{"Id":3675,"Name":"Arena Națională","NationId":613,"Capacity":"55.611","Town":"Bucuresti","Latitude":44.43719482421875,"Longitude":26.1524715423584,"Teams":"59613","Nation":null},{"Id":6744,"Name":"Arena Națională","NationId":613,"Capacity":"55.611","Town":"Bucuresti","Latitude":44.43719482421875,"Longitude":26.1524715423584,"Teams":"59613","Nation":null},{"Id":5247,"Name":"Arena Oldenburger Münsterland","NationId":586,"Capacity":"5.001","Town":"Cloppenburg","Latitude":52.852592468261719,"Longitude":8.03873062133789,"Teams":"60056","Nation":null},{"Id":4617,"Name":"Armand Cesari","NationId":585,"Capacity":"17.000","Town":"Bastia","Latitude":42.651416778564453,"Longitude":9.4426631927490234,"Teams":"59945","Nation":null},{"Id":4618,"Name":"Armand Chouffet","NationId":585,"Capacity":"???","Town":"Villefranche-sur-Saône","Latitude":0.0,"Longitude":0.0,"Teams":null,"Nation":null},{"Id":4339,"Name":"Armand Melis Stadion","NationId":529,"Capacity":"4.291","Town":"Dessel","Latitude":0.0,"Longitude":0.0,"Teams":null,"Nation":null},{"Id":6203,"Name":"Armando Picchi","NationId":596,"Capacity":"18.200","Town":"Livorno","Latitude":43.5266227722168,"Longitude":10.31438159942627,"Teams":"2444","Nation":null},{"Id":6080,"Name":"Armando Picchi","NationId":596,"Capacity":"18.200","Town":"Livorno","Latitude":43.5266227722168,"Longitude":10.31438159942627,"Teams":"2444","Nation":null},{"Id":6059,"Name":"Armando Picchi","NationId":596,"Capacity":"18.200","Town":"Livorno","Latitude":43.5266227722168,"Longitude":10.31438159942627,"Teams":"2444","Nation":null},{"Id":8168,"Name":"Arnos Vale Playing Ground","NationId":633,"Capacity":"18.000","Town":"Kingstown","Latitude":13.141885757446289,"Longitude":-61.2118034362793,"Teams":null,"Nation":null},{"Id":6778,"Name":"Arsenal","NationId":614,"Capacity":"20.048","Town":"Tula","Latitude":54.174564361572266,"Longitude":37.602592468261719,"Teams":"4983","Nation":null},{"Id":6008,"Name":"Arsenal Training Centre","NationId":579,"Capacity":"???","Town":"London Colney","Latitude":51.710384368896484,"Longitude":-0.28687599301338196,"Teams":"60202","Nation":null},{"Id":8646,"Name":"Arsenio Erico","NationId":663,"Capacity":"4.000","Town":"Asunción","Latitude":0.0,"Longitude":0.0,"Teams":"60602","Nation":null},{"Id":4051,"Name":"Arslan Zeki Demirci Spor Kompleksi 1","NationId":627,"Capacity":"???","Town":"Manavgat","Latitude":36.810066223144531,"Longitude":31.359594345092773,"Teams":null,"Nation":null},{"Id":3994,"Name":"Arslan Zeki Demirci Spor Kompleksi 1","NationId":627,"Capacity":"???","Town":"Manavgat","Latitude":36.810066223144531,"Longitude":31.359594345092773,"Teams":null,"Nation":null},{"Id":4052,"Name":"Arslan Zeki Demirci Spor Kompleksi 2","NationId":627,"Capacity":"???","Town":"Manavgat","Latitude":0.0,"Longitude":0.0,"Teams":null,"Nation":null},{"Id":3947,"Name":"Artemio Franchi","NationId":596,"Capacity":"47.284","Town":"Firenze","Latitude":43.780776977539062,"Longitude":11.282711982727051,"Teams":"2400","Nation":null},{"Id":6041,"Name":"Artemio Franchi","NationId":596,"Capacity":"47.284","Town":"Firenze","Latitude":43.780776977539062,"Longitude":11.282711982727051,"Teams":"2400","Nation":null},{"Id":6081,"Name":"Artemio Franchi","NationId":596,"Capacity":"13.500","Town":"Siena","Latitude":43.321731567382812,"Longitude":11.326260566711426,"Teams":"60217","Nation":null},{"Id":6082,"Name":"Artemio Franchi","NationId":596,"Capacity":"47.284","Town":"Firenze","Latitude":43.780776977539062,"Longitude":11.282711982727051,"Teams":"2400","Nation":null},{"Id":6128,"Name":"Artemio Franchi","NationId":596,"Capacity":"13.500","Town":"Siena","Latitude":43.321731567382812,"Longitude":11.326260566711426,"Teams":"60217","Nation":null},{"Id":6185,"Name":"Artemio Franchi","NationId":596,"Capacity":"13.500","Town":"Siena","Latitude":43.321731567382812,"Longitude":11.326260566711426,"Teams":"60217","Nation":null},{"Id":6310,"Name":"Arvi Futbolo Arena","NationId":601,"Capacity":"2.500","Town":"Marijampólè","Latitude":0.0,"Longitude":0.0,"Teams":null,"Nation":null},{"Id":5922,"Name":"Ashton Gate","NationId":579,"Capacity":"27.000","Town":"Bristol","Latitude":51.440120697021484,"Longitude":-2.6202754974365234,"Teams":"2467","Nation":null},{"Id":5726,"Name":"Ashton Gate","NationId":579,"Capacity":"27.000","Town":"Bristol","Latitude":51.440120697021484,"Longitude":-2.6202754974365234,"Teams":"2467","Nation":null},{"Id":5824,"Name":"Ashton Gate","NationId":579,"Capacity":"27.000","Town":"Bristol","Latitude":51.440120697021484,"Longitude":-2.6202754974365234,"Teams":"2467","Nation":null},{"Id":3948,"Name":"Asim Ferhatović Hase","NationId":692,"Capacity":"35.630","Town":"Sarajevo","Latitude":43.873760223388672,"Longitude":18.408622741699219,"Teams":"59664","Nation":null},{"Id":3676,"Name":"Asim Ferhatović Hase","NationId":692,"Capacity":"35.630","Town":"Sarajevo","Latitude":43.873760223388672,"Longitude":18.408622741699219,"Teams":"59664","Nation":null},{"Id":6347,"Name":"Aspmyra Stadion","NationId":608,"Capacity":"7.354","Town":"Bodø","Latitude":67.27667236328125,"Longitude":14.384365081787109,"Teams":"60244","Nation":null},{"Id":3677,"Name":"Astana Arena","NationId":599,"Capacity":"30.000","Town":"Astana","Latitude":0.0,"Longitude":0.0,"Teams":"59550","Nation":null},{"Id":3505,"Name":"Astana Arena","NationId":599,"Capacity":"30.000","Town":"Astana","Latitude":0.0,"Longitude":0.0,"Teams":"59550","Nation":null},{"Id":3370,"Name":"Astana Arena","NationId":599,"Capacity":"30.000","Town":"Astana","Latitude":0.0,"Longitude":0.0,"Teams":"59550","Nation":null},{"Id":3558,"Name":"Astana Arena","NationId":599,"Capacity":"30.000","Town":"Astana","Latitude":0.0,"Longitude":0.0,"Teams":"59550","Nation":null},{"Id":3612,"Name":"Astana Arena","NationId":599,"Capacity":"30.000","Town":"Astana","Latitude":0.0,"Longitude":0.0,"Teams":"59550","Nation":null},{"Id":4107,"Name":"Astana Arena","NationId":599,"Capacity":"30.000","Town":"Astana","Latitude":0.0,"Longitude":0.0,"Teams":"59550","Nation":null},{"Id":8370,"Name":"Aswan Stadium","NationId":574,"Capacity":"20.000","Town":"Aswan","Latitude":24.0661678314209,"Longitude":32.884471893310547,"Teams":null,"Nation":null},{"Id":8427,"Name":"Atanasio Girardot","NationId":553,"Capacity":"53.335","Town":"Medellín","Latitude":6.2567939758300781,"Longitude":-75.590179443359375,"Teams":"60541","Nation":null},{"Id":8605,"Name":"Atanasio Girardot","NationId":553,"Capacity":"53.335","Town":"Medellín","Latitude":6.2567939758300781,"Longitude":-75.590179443359375,"Teams":"60541","Nation":null},{"Id":7350,"Name":"Atatürk","NationId":627,"Capacity":"12.191","Town":"Giresun","Latitude":40.909820556640625,"Longitude":38.371944427490234,"Teams":"7043","Nation":null},{"Id":7351,"Name":"Atatürk","NationId":627,"Capacity":"8.881","Town":"Bolu","Latitude":40.736179351806641,"Longitude":31.606985092163086,"Teams":"7048","Nation":null},{"Id":7352,"Name":"Atatürk","NationId":627,"Capacity":"15.459","Town":"Denizli","Latitude":37.765945434570312,"Longitude":29.0824031829834,"Teams":"4650","Nation":null},{"Id":7353,"Name":"Atatürk","NationId":627,"Capacity":"57.500","Town":"Izmir","Latitude":38.434860229492188,"Longitude":27.178260803222656,"Teams":"60519","Nation":null},{"Id":7376,"Name":"Atatürk","NationId":627,"Capacity":"57.500","Town":"Izmir","Latitude":38.434860229492188,"Longitude":27.178260803222656,"Teams":"60519","Nation":null},{"Id":7377,"Name":"Atatürk","NationId":627,"Capacity":"12.191","Town":"Giresun","Latitude":40.909820556640625,"Longitude":38.371944427490234,"Teams":"7043","Nation":null},{"Id":7378,"Name":"Atatürk","NationId":627,"Capacity":"8.881","Town":"Bolu","Latitude":40.736179351806641,"Longitude":31.606985092163086,"Teams":"7048","Nation":null},{"Id":7379,"Name":"Atatürk Olimpiyat","NationId":627,"Capacity":"76.092","Town":"Istanbul","Latitude":41.0744514465332,"Longitude":28.765480041503906,"Teams":"60525","Nation":null},{"Id":7380,"Name":"Atatürk Şehir Stadyumu","NationId":627,"Capacity":"11.500","Town":"Van","Latitude":0.0,"Longitude":0.0,"Teams":null,"Nation":null},{"Id":8380,"Name":"Athlone Stadium","NationId":620,"Capacity":"25.000","Town":"Capetown","Latitude":-33.961879730224609,"Longitude":18.5173282623291,"Teams":"5945","Nation":null},{"Id":6186,"Name":"Atleti Azzurri d'Italia","NationId":596,"Capacity":"26.562","Town":"Bergamo","Latitude":45.709129333496094,"Longitude":9.6808223724365234,"Teams":"2417","Nation":null},{"Id":6143,"Name":"Atleti Azzurri d'Italia","NationId":596,"Capacity":"26.562","Town":"Bergamo","Latitude":45.709129333496094,"Longitude":9.6808223724365234,"Teams":"2417","Nation":null},{"Id":6083,"Name":"Atleti Azzurri d'Italia","NationId":596,"Capacity":"26.562","Town":"Bergamo","Latitude":45.709129333496094,"Longitude":9.6808223724365234,"Teams":"2417","Nation":null},{"Id":6042,"Name":"Atleti Azzurri d'Italia","NationId":596,"Capacity":"26.562","Town":"Bergamo","Latitude":45.709129333496094,"Longitude":9.6808223724365234,"Teams":"2417","Nation":null},{"Id":4408,"Name":"Atletikstadion","NationId":571,"Capacity":"15.000","Town":"Esbjerg","Latitude":0.0,"Longitude":0.0,"Teams":null,"Nation":null},{"Id":4444,"Name":"Atletikstadion","NationId":571,"Capacity":"15.000","Town":"Esbjerg","Latitude":0.0,"Longitude":0.0,"Teams":null,"Nation":null},{"Id":4900,"Name":"ATSV-Sportanlage","NationId":586,"Capacity":"???","Town":"Erlangen","Latitude":49.578388214111328,"Longitude":10.998559951782227,"Teams":null,"Nation":null},{"Id":8283,"Name":"Audi Field","NationId":630,"Capacity":"20.000","Town":"Washington, D.C.","Latitude":38.868331909179688,"Longitude":-77.012222290039062,"Teams":"60750","Nation":null},{"Id":4716,"Name":"Audi Sportpark","NationId":586,"Capacity":"15.800","Town":"Ingolstadt","Latitude":48.745513916015625,"Longitude":11.485445022583008,"Teams":"59951","Nation":null},{"Id":5426,"Name":"Audi Sportpark","NationId":586,"Capacity":"15.800","Town":"Ingolstadt","Latitude":48.745513916015625,"Longitude":11.485445022583008,"Teams":"59951","Nation":null},{"Id":5609,"Name":"Audi Sportpark Nebenplätze","NationId":586,"Capacity":"???","Town":"Ingolstadt","Latitude":0.74639302492141724,"Longitude":11.488142013549805,"Teams":null,"Nation":null},{"Id":5501,"Name":"Audi Sportpark Nebenplätze","NationId":586,"Capacity":"???","Town":"Ingolstadt","Latitude":0.74639302492141724,"Longitude":11.488142013549805,"Teams":null,"Nation":null},{"Id":4956,"Name":"Auestadion","NationId":586,"Capacity":"19.000","Town":"Kassel","Latitude":51.298725128173828,"Longitude":9.484044075012207,"Teams":"50072","Nation":null},{"Id":5226,"Name":"Auestadion","NationId":586,"Capacity":"19.000","Town":"Kassel","Latitude":51.298725128173828,"Longitude":9.484044075012207,"Teams":"50072","Nation":null},{"Id":5448,"Name":"August-Bier-Sportanlage","NationId":586,"Capacity":"???","Town":"Berlin","Latitude":52.518497467041016,"Longitude":13.235214233398438,"Teams":null,"Nation":null},{"Id":5449,"Name":"August-Bier-Sportanlage Kunstrasenplätze","NationId":586,"Capacity":"1.000","Town":"Berlin","Latitude":52.5191764831543,"Longitude":13.237421035766602,"Teams":null,"Nation":null},{"Id":5556,"Name":"August-Bier-Sportanlage Kunstrasenplätze","NationId":586,"Capacity":"1.000","Town":"Berlin","Latitude":52.5191764831543,"Longitude":13.237421035766602,"Teams":null,"Nation":null},{"Id":4597,"Name":"Auguste Bonal","NationId":585,"Capacity":"20.000","Town":"Sochaux","Latitude":47.512458801269531,"Longitude":6.8111963272094727,"Teams":"49953","Nation":null},{"Id":4667,"Name":"Auguste Bonal","NationId":585,"Capacity":"20.000","Town":"Sochaux","Latitude":47.512458801269531,"Longitude":6.8111963272094727,"Teams":"49953","Nation":null},{"Id":4668,"Name":"Auguste Delaune","NationId":585,"Capacity":"21.684","Town":"Reims","Latitude":49.247146606445312,"Longitude":4.0247349739074707,"Teams":"49966","Nation":null},{"Id":4619,"Name":"Auguste Delaune","NationId":585,"Capacity":"21.684","Town":"Reims","Latitude":49.247146606445312,"Longitude":4.0247349739074707,"Teams":"49966","Nation":null},{"Id":4576,"Name":"Auguste Delaune","NationId":585,"Capacity":"21.684","Town":"Reims","Latitude":49.247146606445312,"Longitude":4.0247349739074707,"Teams":"49966","Nation":null},{"Id":5209,"Name":"August-Thyssen-Stadion","NationId":586,"Capacity":"25.000","Town":"Duisburg","Latitude":0.0,"Longitude":0.0,"Teams":null,"Nation":null},{"Id":3852,"Name":"Aukstaitija","NationId":601,"Capacity":"10.000","Town":"Panevezys","Latitude":55.739112854003906,"Longitude":24.359428405761719,"Teams":"59732","Nation":null},{"Id":3886,"Name":"Aukstaitija","NationId":601,"Capacity":"10.000","Town":"Panevezys","Latitude":55.739112854003906,"Longitude":24.359428405761719,"Teams":"59732","Nation":null},{"Id":5285,"Name":"Auto-Senger-Stadion","NationId":586,"Capacity":"3.000","Town":"Rheine","Latitude":52.294624328613281,"Longitude":7.431910514831543,"Teams":"60125","Nation":null},{"Id":8306,"Name":"AutoZone Park","NationId":630,"Capacity":"???","Town":"Memphis, TN","Latitude":0.0,"Longitude":0.0,"Teams":null,"Nation":null},{"Id":6795,"Name":"Avangard","NationId":614,"Capacity":"6.000","Town":"Domodedovo","Latitude":0.0,"Longitude":0.0,"Teams":null,"Nation":null},{"Id":8284,"Name":"Avaya Stadium","NationId":630,"Capacity":"18.000","Town":"San Jose, CA","Latitude":37.351211547851562,"Longitude":-121.92460632324219,"Teams":"6049","Nation":null},{"Id":4457,"Name":"Avedøre Stadion Kunstgræs","NationId":571,"Capacity":"???","Town":"Hvidovre","Latitude":0.0,"Longitude":0.0,"Teams":null,"Nation":null},{"Id":4422,"Name":"Avedøre Stadion Kunstgræs","NationId":571,"Capacity":"???","Town":"Hvidovre","Latitude":0.0,"Longitude":0.0,"Teams":null,"Nation":null},{"Id":4053,"Name":"Aveiro Municipal","NationId":612,"Capacity":"30.000","Town":"Aveiro","Latitude":40.647857666015625,"Longitude":-8.59386920928955,"Teams":"59788","Nation":null},{"Id":6723,"Name":"Aveiro Municipal","NationId":612,"Capacity":"30.000","Town":"Aveiro","Latitude":40.647857666015625,"Longitude":-8.59386920928955,"Teams":"59788","Nation":null},{"Id":6645,"Name":"Aveiro Municipal","NationId":612,"Capacity":"30.000","Town":"Aveiro","Latitude":40.647857666015625,"Longitude":-8.59386920928955,"Teams":"59788","Nation":null},{"Id":3371,"Name":"Aviva Stadium","NationId":595,"Capacity":"50.000","Town":"Dublin","Latitude":53.335140228271484,"Longitude":-6.2283329963684082,"Teams":"59551","Nation":null},{"Id":3470,"Name":"Aviva Stadium","NationId":595,"Capacity":"50.000","Town":"Dublin","Latitude":53.335140228271484,"Longitude":-6.2283329963684082,"Teams":"59551","Nation":null},{"Id":7986,"Name":"Azadi Sports Stadium","NationId":594,"Capacity":"90.000","Town":"Tehran","Latitude":35.724395751953125,"Longitude":51.275539398193359,"Teams":"60676","Nation":null},{"Id":8236,"Name":"Azteca","NationId":602,"Capacity":"114.465","Town":"México, D.F.","Latitude":19.302825927734375,"Longitude":-99.150390625,"Teams":"60736","Nation":null},{"Id":8213,"Name":"Azteca","NationId":602,"Capacity":"114.465","Town":"México, D.F.","Latitude":19.302825927734375,"Longitude":-99.150390625,"Teams":"60736","Nation":null},{"Id":7163,"Name":"Backavallen Motionscentrum","NationId":625,"Capacity":"3.000","Town":"Göteburg","Latitude":0.0,"Longitude":0.0,"Teams":null,"Nation":null},{"Id":7381,"Name":"Bahçeşehir Okulları Stadyumu","NationId":627,"Capacity":"10.842","Town":"Alanya","Latitude":36.562637329101562,"Longitude":32.079143524169922,"Teams":"6934","Nation":null},{"Id":7331,"Name":"Bahçeşehir Okulları Stadyumu","NationId":627,"Capacity":"10.842","Town":"Alanya","Latitude":36.562637329101562,"Longitude":32.079143524169922,"Teams":"6934","Nation":null},{"Id":3372,"Name":"Bakcell Arena","NationId":519,"Capacity":"11.000","Town":"Baku","Latitude":40.400161743164062,"Longitude":49.944019317626953,"Teams":null,"Nation":null},{"Id":3373,"Name":"Baku National Stadium","NationId":519,"Capacity":"68.700","Town":"Baku","Latitude":40.429836273193359,"Longitude":49.922389984130859,"Teams":null,"Nation":null},{"Id":3506,"Name":"Baku National Stadium","NationId":519,"Capacity":"68.700","Town":"Baku","Latitude":40.429836273193359,"Longitude":49.922389984130859,"Teams":null,"Nation":null},{"Id":3613,"Name":"Baku National Stadium","NationId":519,"Capacity":"68.700","Town":"Baku","Latitude":40.429836273193359,"Longitude":49.922389984130859,"Teams":null,"Nation":null},{"Id":7382,"Name":"Balikesir Atatürk","NationId":627,"Capacity":"15.800","Town":"Balıkesir","Latitude":39.641544342041016,"Longitude":27.8876895904541,"Teams":null,"Nation":null},{"Id":7354,"Name":"Balikesir Atatürk","NationId":627,"Capacity":"15.800","Town":"Balıkesir","Latitude":39.641544342041016,"Longitude":27.8876895904541,"Teams":null,"Nation":null},{"Id":7941,"Name":"Balkanabat Stadiony","NationId":776,"Capacity":"10.000","Town":"Balkanabat","Latitude":0.0,"Longitude":0.0,"Teams":null,"Nation":null},{"Id":7045,"Name":"Baltasar Pujales","NationId":623,"Capacity":"1.500","Town":"Vigo","Latitude":42.226783752441406,"Longitude":-8.75570011138916,"Teams":"60419","Nation":null},{"Id":3678,"Name":"Banants Stadium","NationId":498,"Capacity":"6.000","Town":"Yerevan","Latitude":40.171424865722656,"Longitude":44.4499397277832,"Teams":"59665","Nation":null},{"Id":8152,"Name":"Banc of California Stadium","NationId":630,"Capacity":"22.000","Town":"Los Angeles, CA","Latitude":34.012989044189453,"Longitude":-118.28460693359375,"Teams":"50903","Nation":null},{"Id":8285,"Name":"Banc of California Stadium","NationId":630,"Capacity":"22.000","Town":"Los Angeles, CA","Latitude":34.012989044189453,"Longitude":-118.28460693359375,"Teams":"50903","Nation":null},{"Id":7383,"Name":"Bandirma 17 Eylül","NationId":627,"Capacity":"5.400","Town":"Balıkesir","Latitude":0.0,"Longitude":0.0,"Teams":null,"Nation":null},{"Id":4445,"Name":"Banerne ved Haderslev Idrætscenter","NationId":571,"Capacity":"???","Town":"Haderslev","Latitude":55.263698577880859,"Longitude":9.49036693572998,"Teams":null,"Nation":null},{"Id":4409,"Name":"Banerne ved Haderslev Idrætscenter","NationId":571,"Capacity":"???","Town":"Haderslev","Latitude":55.263698577880859,"Longitude":9.49036693572998,"Teams":null,"Nation":null},{"Id":7942,"Name":"Bangabandhu National Stadium","NationId":524,"Capacity":"36.000","Town":"Dhaka","Latitude":23.727849960327148,"Longitude":90.413566589355469,"Teams":"60660","Nation":null},{"Id":8153,"Name":"Bank of America Stadium","NationId":630,"Capacity":"73.778","Town":"Charlotte, NC","Latitude":35.225830078125,"Longitude":-80.852828979492188,"Teams":null,"Nation":null},{"Id":5825,"Name":"Banks’s Stadium","NationId":579,"Capacity":"11.300","Town":"Walsall","Latitude":52.565383911132812,"Longitude":-1.9904203414916992,"Teams":"60180","Nation":null},{"Id":5923,"Name":"Banks’s Stadium","NationId":579,"Capacity":"11.300","Town":"Walsall","Latitude":52.565383911132812,"Longitude":-1.9904203414916992,"Teams":"60180","Nation":null},{"Id":5751,"Name":"Banks’s Stadium","NationId":579,"Capacity":"11.300","Town":"Walsall","Latitude":52.565383911132812,"Longitude":-1.9904203414916992,"Teams":"60180","Nation":null},{"Id":8105,"Name":"Barabati Stadium","NationId":773,"Capacity":"45.000","Town":"Cuttack","Latitude":20.480949401855469,"Longitude":85.868576049804688,"Teams":null,"Nation":null},{"Id":4977,"Name":"Barne-Arena","NationId":586,"Capacity":"2.000","Town":"Wunstorf","Latitude":52.411106109619141,"Longitude":9.4344673156738281,"Teams":"60053","Nation":null},{"Id":8118,"Name":"Batakan Stadium","NationId":593,"Capacity":"40.000","Town":"Balikpapan","Latitude":0.0,"Longitude":0.0,"Teams":null,"Nation":null},{"Id":7384,"Name":"Batman Yeni Şehir Stadı","NationId":627,"Capacity":"15.000","Town":"Batman","Latitude":0.0,"Longitude":0.0,"Teams":null,"Nation":null},{"Id":4920,"Name":"Baumit Arena","NationId":586,"Capacity":"6.000","Town":"Sonthofen","Latitude":47.503684997558594,"Longitude":10.276279449462891,"Teams":"60020","Nation":null},{"Id":8535,"Name":"Bautista Gargantini","NationId":492,"Capacity":"24.000","Town":"Mendoza","Latitude":-32.890785217285156,"Longitude":-68.862777709960938,"Teams":"60582","Nation":null},{"Id":8169,"Name":"Bayamón FC Soccer Complex","NationId":633,"Capacity":"3.000","Town":"Bayamón","Latitude":18.366348266601562,"Longitude":-66.166511535644531,"Teams":null,"Nation":null},{"Id":4698,"Name":"BayArena","NationId":586,"Capacity":"30.210","Town":"Leverkusen","Latitude":51.038230895996094,"Longitude":7.0022072792053223,"Teams":"1047","Nation":null},{"Id":3614,"Name":"BayArena","NationId":586,"Capacity":"30.210","Town":"Leverkusen","Latitude":51.038230895996094,"Longitude":7.0022072792053223,"Teams":"1047","Nation":null},{"Id":6861,"Name":"Bayview Stadium","NationId":616,"Capacity":"???","Town":"Methil","Latitude":0.0,"Longitude":0.0,"Teams":null,"Nation":null},{"Id":6751,"Name":"Baza Sportivă Luceafărul Felix","NationId":613,"Capacity":"2.200","Town":"Sânmartin","Latitude":0.0,"Longitude":0.0,"Teams":null,"Nation":null},{"Id":5028,"Name":"BB Bank Sportpark","NationId":586,"Capacity":"2.000","Town":"Köln","Latitude":50.925098419189453,"Longitude":6.9820480346679688,"Teams":null,"Nation":null},{"Id":8214,"Name":"BBVA Bancomer","NationId":602,"Capacity":"53.500","Town":"Guadalupe","Latitude":25.6701717376709,"Longitude":-100.24369812011719,"Teams":"60729","Nation":null},{"Id":8190,"Name":"BBVA Bancomer","NationId":602,"Capacity":"53.500","Town":"Guadalupe","Latitude":25.6701717376709,"Longitude":-100.24369812011719,"Teams":"60729","Nation":null},{"Id":8237,"Name":"BBVA Bancomer","NationId":602,"Capacity":"53.500","Town":"Guadalupe","Latitude":25.6701717376709,"Longitude":-100.24369812011719,"Teams":"60729","Nation":null},{"Id":8307,"Name":"BBVA Compass Field","NationId":630,"Capacity":"???","Town":"Birmingham, AL","Latitude":0.0,"Longitude":0.0,"Teams":null,"Nation":null},{"Id":8286,"Name":"BBVA Compass Stadium","NationId":630,"Capacity":"22.039","Town":"Houston, TX","Latitude":29.753332138061523,"Longitude":-95.35333251953125,"Teams":"60648","Nation":null},{"Id":8191,"Name":"BBVA Compass Stadium","NationId":630,"Capacity":"22.039","Town":"Houston, TX","Latitude":29.753332138061523,"Longitude":-95.35333251953125,"Teams":"60648","Nation":null},{"Id":8154,"Name":"BBVA Compass Stadium","NationId":630,"Capacity":"22.039","Town":"Houston, TX","Latitude":29.753332138061523,"Longitude":-95.35333251953125,"Teams":"60648","Nation":null},{"Id":8170,"Name":"BC Place","NationId":735,"Capacity":"54.500","Town":"Vancouver, BC","Latitude":49.276660919189453,"Longitude":-123.11208343505859,"Teams":"46728","Nation":null},{"Id":8287,"Name":"BC Place","NationId":735,"Capacity":"54.500","Town":"Vancouver, BC","Latitude":49.276660919189453,"Longitude":-123.11208343505859,"Teams":"46728","Nation":null},{"Id":4993,"Name":"Bechtle Stadion","NationId":586,"Capacity":"2.000","Town":"Karlsbad-Spielberg","Latitude":48.900318145751953,"Longitude":8.4628438949584961,"Teams":"60062","Nation":null},{"Id":6862,"Name":"Beechwood Park","NationId":616,"Capacity":"4.000","Town":"Auchinleck","Latitude":0.0,"Longitude":0.0,"Teams":null,"Nation":null},{"Id":7164,"Name":"Behrn Arena","NationId":625,"Capacity":"14.500","Town":"Örebro","Latitude":59.266254425048828,"Longitude":15.223343849182129,"Teams":"60459","Nation":null},{"Id":7132,"Name":"Behrn Arena","NationId":625,"Capacity":"14.500","Town":"Örebro","Latitude":59.266254425048828,"Longitude":15.223343849182129,"Teams":"60459","Nation":null},{"Id":7147,"Name":"Behrn Arena","NationId":625,"Capacity":"14.500","Town":"Örebro","Latitude":59.266254425048828,"Longitude":15.223343849182129,"Teams":"60459","Nation":null},{"Id":8428,"Name":"Beira-Rio","NationId":535,"Capacity":"58.306","Town":"Porto Alegre","Latitude":-30.065582275390625,"Longitude":-51.236183166503906,"Teams":"1089","Nation":null},{"Id":5266,"Name":"Belkaw Arena","NationId":586,"Capacity":"10.500","Town":"Bergisch Gladbach","Latitude":50.993904113769531,"Longitude":7.1198368072509766,"Teams":"59987","Nation":null},{"Id":8470,"Name":"Bellavista","NationId":641,"Capacity":"18.000","Town":"Ambato","Latitude":-1.2447636127471924,"Longitude":-78.623085021972656,"Teams":"60559","Nation":null},{"Id":8633,"Name":"Bellavista","NationId":641,"Capacity":"18.000","Town":"Ambato","Latitude":-1.2447636127471924,"Longitude":-78.623085021972656,"Teams":"60559","Nation":null},{"Id":3887,"Name":"Belle Vue","NationId":632,"Capacity":"3.800","Town":"Rhyl","Latitude":53.318901062011719,"Longitude":-3.4760732650756836,"Teams":"59666","Nation":null},{"Id":3995,"Name":"Belle Vue","NationId":632,"Capacity":"3.800","Town":"Rhyl","Latitude":53.318901062011719,"Longitude":-3.4760732650756836,"Teams":"59666","Nation":null},{"Id":3679,"Name":"Belle Vue","NationId":632,"Capacity":"3.800","Town":"Rhyl","Latitude":53.318901062011719,"Longitude":-3.4760732650756836,"Teams":"59666","Nation":null},{"Id":6009,"Name":"Belvoir Drive","NationId":579,"Capacity":"???","Town":"Leicester","Latitude":52.603481292724609,"Longitude":-1.1502079963684082,"Teams":"60203","Nation":null},{"Id":8402,"Name":"Ben Guerdane","NationId":723,"Capacity":"6.500","Town":"Ben Guerdane","Latitude":33.152774810791016,"Longitude":11.2061128616333,"Teams":null,"Nation":null},{"Id":6043,"Name":"Benito Stirpe","NationId":596,"Capacity":"16.125","Town":"Frosinone","Latitude":41.634258270263672,"Longitude":13.321866035461426,"Teams":"2896","Nation":null},{"Id":6947,"Name":"Benito Villamarín","NationId":623,"Capacity":"60.721","Town":"Sevilla","Latitude":37.356418609619141,"Longitude":-5.9817485809326172,"Teams":"48103","Nation":null},{"Id":6991,"Name":"Benito Villamarín","NationId":623,"Capacity":"60.721","Town":"Sevilla","Latitude":37.356418609619141,"Longitude":-5.9817485809326172,"Teams":"48103","Nation":null},{"Id":3448,"Name":"Benito Villamarín","NationId":623,"Capacity":"60.721","Town":"Sevilla","Latitude":37.356418609619141,"Longitude":-5.9817485809326172,"Teams":"48103","Nation":null},{"Id":3615,"Name":"Benito Villamarín","NationId":623,"Capacity":"60.721","Town":"Sevilla","Latitude":37.356418609619141,"Longitude":-5.9817485809326172,"Teams":"48103","Nation":null},{"Id":4717,"Name":"Benteler Arena","NationId":586,"Capacity":"15.000","Town":"Paderborn","Latitude":51.7307014465332,"Longitude":8.7110633850097656,"Teams":"2812","Nation":null},{"Id":4755,"Name":"Benteler Arena","NationId":586,"Capacity":"15.000","Town":"Paderborn","Latitude":51.7307014465332,"Longitude":8.7110633850097656,"Teams":"2812","Nation":null},{"Id":4377,"Name":"Beroe","NationId":539,"Capacity":"11.460","Town":"Stara Zagora","Latitude":42.4327392578125,"Longitude":25.615304946899414,"Teams":"59895","Nation":null},{"Id":5029,"Name":"Bertram-Möthrath-Stadion","NationId":586,"Capacity":"1.500","Town":"Düren","Latitude":50.845054626464844,"Longitude":6.4892082214355469,"Teams":"60083","Nation":null},{"Id":5924,"Name":"bet365 Stadium","NationId":579,"Capacity":"30.089","Town":"Stoke-on-Trent","Latitude":52.988399505615234,"Longitude":-2.1754269599914551,"Teams":"2511","Nation":null},{"Id":5826,"Name":"bet365 Stadium","NationId":579,"Capacity":"30.089","Town":"Stoke-on-Trent","Latitude":52.988399505615234,"Longitude":-2.1754269599914551,"Teams":"2511","Nation":null},{"Id":5727,"Name":"bet365 Stadium","NationId":579,"Capacity":"30.089","Town":"Stoke-on-Trent","Latitude":52.988399505615234,"Longitude":-2.1754269599914551,"Teams":"2511","Nation":null},{"Id":5827,"Name":"Beveree Stadium","NationId":579,"Capacity":"???","Town":"Hampton","Latitude":51.415065765380859,"Longitude":-0.36332699656486511,"Teams":null,"Nation":null},{"Id":8381,"Name":"BidVest Stadium","NationId":620,"Capacity":"???","Town":"Johannesburg","Latitude":-26.186973,"Longitude":28.028392,"Teams":"5959","Nation":null},{"Id":3949,"Name":"BÏİK","NationId":599,"Capacity":"3.000","Town":"Shymkent","Latitude":0.0,"Longitude":0.0,"Teams":null,"Nation":null},{"Id":3888,"Name":"Bilino Polje","NationId":692,"Capacity":"12.500","Town":"Zenica","Latitude":44.205757141113281,"Longitude":17.907135009765625,"Teams":"59552","Nation":null},{"Id":3471,"Name":"Bilino Polje","NationId":692,"Capacity":"12.500","Town":"Zenica","Latitude":44.205757141113281,"Longitude":17.907135009765625,"Teams":"59552","Nation":null},{"Id":3374,"Name":"Bilino Polje","NationId":692,"Capacity":"12.500","Town":"Zenica","Latitude":44.205757141113281,"Longitude":17.907135009765625,"Teams":"59552","Nation":null},{"Id":4901,"Name":"Bioenergie Arena","NationId":586,"Capacity":"3.500","Town":"Großbardorf","Latitude":50.265464782714844,"Longitude":10.372550010681152,"Teams":null,"Nation":null},{"Id":4446,"Name":"BioNutria Park Randers","NationId":571,"Capacity":"12.000","Town":"Randers","Latitude":56.465938568115234,"Longitude":10.010261535644531,"Teams":"2879","Nation":null},{"Id":4860,"Name":"BIZERBA-Arena","NationId":586,"Capacity":"5.000","Town":"Balingen","Latitude":48.281818389892578,"Longitude":8.8583688735961914,"Teams":"59993","Nation":null},{"Id":4261,"Name":"Black Crevice Stadion","NationId":514,"Capacity":"2.700","Town":"Vöcklamarkt","Latitude":48.003734588623047,"Longitude":13.480363845825195,"Teams":"59848","Nation":null},{"Id":5982,"Name":"Blackburn Rovers Academy","NationId":579,"Capacity":"???","Town":"Brockhall Village","Latitude":53.820564270019531,"Longitude":-2.4528739452362061,"Teams":null,"Nation":null},{"Id":5047,"Name":"BLF Arena Kunstrasenplatz","NationId":586,"Capacity":"2.000","Town":"Velbert","Latitude":51.343971252441406,"Longitude":7.0319209098815918,"Teams":null,"Nation":null},{"Id":5925,"Name":"Bloomfield Road","NationId":579,"Capacity":"16.000","Town":"Blackpool","Latitude":53.804859161376953,"Longitude":-3.0481429100036621,"Teams":"60181","Nation":null},{"Id":5752,"Name":"Bloomfield Road","NationId":579,"Capacity":"16.000","Town":"Blackpool","Latitude":53.804859161376953,"Longitude":-3.0481429100036621,"Teams":"60181","Nation":null},{"Id":5828,"Name":"Bloomfield Road","NationId":579,"Capacity":"16.000","Town":"Blackpool","Latitude":53.804859161376953,"Longitude":-3.0481429100036621,"Teams":"60181","Nation":null},{"Id":4399,"Name":"Blue Water Arena","NationId":571,"Capacity":"18.000","Town":"Esbjerg","Latitude":55.481983184814453,"Longitude":8.4394102096557617,"Teams":"59901","Nation":null},{"Id":4823,"Name":"bluechip-Arena","NationId":586,"Capacity":"5.260","Town":"Meuselwitz","Latitude":51.053627014160156,"Longitude":12.283177375793457,"Teams":"59979","Nation":null},{"Id":5829,"Name":"Blundell Park","NationId":579,"Capacity":"10.033","Town":"Cleethorpes","Latitude":53.5702018737793,"Longitude":-0.046530961990356445,"Teams":"2488","Nation":null},{"Id":5776,"Name":"Blundell Park","NationId":579,"Capacity":"10.033","Town":"Cleethorpes","Latitude":53.5702018737793,"Longitude":-0.046530961990356445,"Teams":"2488","Nation":null},{"Id":5926,"Name":"Blundell Park","NationId":579,"Capacity":"10.033","Town":"Cleethorpes","Latitude":53.5702018737793,"Longitude":-0.046530961990356445,"Teams":"2488","Nation":null},{"Id":8288,"Name":"BMO Field","NationId":735,"Capacity":"40.000","Town":"Toronto, ON","Latitude":43.633205413818359,"Longitude":-79.418571472167969,"Teams":"46753","Nation":null},{"Id":8192,"Name":"BMO Field","NationId":735,"Capacity":"40.000","Town":"Toronto, ON","Latitude":43.633205413818359,"Longitude":-79.418571472167969,"Teams":"46753","Nation":null},{"Id":8171,"Name":"BMO Field","NationId":735,"Capacity":"40.000","Town":"Toronto, ON","Latitude":43.633205413818359,"Longitude":-79.418571472167969,"Teams":"46753","Nation":null},{"Id":4308,"Name":"Bodenseestadion","NationId":514,"Capacity":"12.000","Town":"Bregenz","Latitude":47.503902435302734,"Longitude":9.7334041595458984,"Teams":"59871","Nation":null},{"Id":7385,"Name":"Bodrum İlçe Stadı","NationId":627,"Capacity":"3.000","Town":"Bodrum","Latitude":0.0,"Longitude":0.0,"Teams":null,"Nation":null},{"Id":6010,"Name":"Bodymoor Heath","NationId":579,"Capacity":"???","Town":"Bodymoor Heath","Latitude":52.572799682617188,"Longitude":-1.720767617225647,"Teams":null,"Nation":null},{"Id":5210,"Name":"Bökelbergstadion","NationId":586,"Capacity":"34.500","Town":"Mönchengladbach","Latitude":51.209083557128906,"Longitude":6.4395527839660645,"Teams":null,"Nation":null},{"Id":8308,"Name":"Bold Stadium","NationId":630,"Capacity":"5.000","Town":"Austin, TX","Latitude":0.0,"Longitude":0.0,"Teams":null,"Nation":null},{"Id":6318,"Name":"Bolshaya Sportivnaya Arena","NationId":718,"Capacity":"14.300","Town":"Tiraspol","Latitude":46.838325500488281,"Longitude":29.55766487121582,"Teams":"59624","Nation":null},{"Id":3680,"Name":"Bolshaya Sportivnaya Arena","NationId":718,"Capacity":"14.300","Town":"Tiraspol","Latitude":46.838325500488281,"Longitude":29.55766487121582,"Teams":"59624","Nation":null},{"Id":3889,"Name":"Bolshaya Sportivnaya Arena","NationId":718,"Capacity":"14.300","Town":"Tiraspol","Latitude":46.838325500488281,"Longitude":29.55766487121582,"Teams":"59624","Nation":null},{"Id":3559,"Name":"Bolshaya Sportivnaya Arena","NationId":718,"Capacity":"14.300","Town":"Tiraspol","Latitude":46.838325500488281,"Longitude":29.55766487121582,"Teams":"59624","Nation":null},{"Id":4824,"Name":"Bonava-Arena","NationId":586,"Capacity":"8.000","Town":"Fürstenwalde","Latitude":52.366226196289062,"Longitude":14.034589767456055,"Teams":"59980","Nation":null},{"Id":3890,"Name":"Borås Arena","NationId":625,"Capacity":"17.800","Town":"Borås","Latitude":57.734401702880859,"Longitude":12.934727668762207,"Teams":"59739","Nation":null},{"Id":4108,"Name":"Borås Arena","NationId":625,"Capacity":"17.800","Town":"Borås","Latitude":57.734401702880859,"Longitude":12.934727668762207,"Teams":"59739","Nation":null},{"Id":7148,"Name":"Borås Arena","NationId":625,"Capacity":"17.800","Town":"Borås","Latitude":57.734401702880859,"Longitude":12.934727668762207,"Teams":"59739","Nation":null},{"Id":7133,"Name":"Borås Arena","NationId":625,"Capacity":"17.800","Town":"Borås","Latitude":57.734401702880859,"Longitude":12.934727668762207,"Teams":"59739","Nation":null},{"Id":7165,"Name":"Borås Arena","NationId":625,"Capacity":"17.800","Town":"Borås","Latitude":57.734401702880859,"Longitude":12.934727668762207,"Teams":"59739","Nation":null},{"Id":8371,"Name":"Border Guard Stadium","NationId":574,"Capacity":"22.000","Town":"Alexandria","Latitude":31.150936126708984,"Longitude":29.848453521728516,"Teams":"13637","Nation":null},{"Id":8372,"Name":"Borg El Arab Stadium","NationId":574,"Capacity":"86.000","Town":"Alexandria","Latitude":30.9993896484375,"Longitude":29.729436874389648,"Teams":"60634","Nation":null},{"Id":3681,"Name":"Boris Paichadze","NationId":644,"Capacity":"55.600","Town":"Tbilisi","Latitude":41.723018646240234,"Longitude":44.789764404296875,"Teams":"37417","Nation":null},{"Id":3375,"Name":"Boris Paichadze","NationId":644,"Capacity":"55.600","Town":"Tbilisi","Latitude":41.723018646240234,"Longitude":44.789764404296875,"Teams":"37417","Nation":null},{"Id":3507,"Name":"Boris Paichadze","NationId":644,"Capacity":"55.600","Town":"Tbilisi","Latitude":41.723018646240234,"Longitude":44.789764404296875,"Teams":"37417","Nation":null},{"Id":3376,"Name":"Borisov Arena","NationId":683,"Capacity":"13.126","Town":"Borisov","Latitude":54.19305419921875,"Longitude":28.475278854370117,"Teams":"59553","Nation":null},{"Id":3560,"Name":"Borisov Arena","NationId":683,"Capacity":"13.126","Town":"Borisov","Latitude":54.19305419921875,"Longitude":28.475278854370117,"Teams":"59553","Nation":null},{"Id":3616,"Name":"Borisov Arena","NationId":683,"Capacity":"13.126","Town":"Borisov","Latitude":54.19305419921875,"Longitude":28.475278854370117,"Teams":"59553","Nation":null},{"Id":4360,"Name":"Borisov Arena","NationId":683,"Capacity":"13.126","Town":"Borisov","Latitude":54.19305419921875,"Longitude":28.475278854370117,"Teams":"59553","Nation":null},{"Id":4109,"Name":"Bornova Doğanlar Stadı","NationId":627,"Capacity":"12.500","Town":"Izmir","Latitude":38.447086334228516,"Longitude":27.2623291015625,"Teams":"59803","Nation":null},{"Id":7355,"Name":"Bornova Doğanlar Stadı","NationId":627,"Capacity":"12.500","Town":"Izmir","Latitude":38.447086334228516,"Longitude":27.2623291015625,"Teams":"59803","Nation":null},{"Id":7386,"Name":"Bornova Doğanlar Stadı","NationId":627,"Capacity":"12.500","Town":"Izmir","Latitude":38.447086334228516,"Longitude":27.2623291015625,"Teams":"59803","Nation":null},{"Id":7332,"Name":"Bornova Doğanlar Stadı","NationId":627,"Capacity":"12.500","Town":"Izmir","Latitude":38.447086334228516,"Longitude":27.2623291015625,"Teams":"59803","Nation":null},{"Id":5799,"Name":"Borough Sports Ground","NationId":579,"Capacity":"7.032","Town":"Sutton","Latitude":0.0,"Longitude":0.0,"Teams":null,"Nation":null},{"Id":5830,"Name":"Borough Sports Ground","NationId":579,"Capacity":"7.032","Town":"Sutton","Latitude":0.0,"Longitude":0.0,"Teams":null,"Nation":null},{"Id":5474,"Name":"Borussia Park Nebenplatz 4","NationId":586,"Capacity":"???","Town":"Mönchengladbach","Latitude":51.174594879150391,"Longitude":6.3854384422302246,"Teams":null,"Nation":null},{"Id":4756,"Name":"Borussia-Park","NationId":586,"Capacity":"54.022","Town":"Mönchengladbach","Latitude":51.174594879150391,"Longitude":6.3854384422302246,"Teams":"48253","Nation":null},{"Id":4699,"Name":"Borussia-Park","NationId":586,"Capacity":"54.022","Town":"Mönchengladbach","Latitude":51.174594879150391,"Longitude":6.3854384422302246,"Teams":"48253","Nation":null},{"Id":3377,"Name":"Borussia-Park","NationId":586,"Capacity":"54.022","Town":"Mönchengladbach","Latitude":51.174594879150391,"Longitude":6.3854384422302246,"Teams":"48253","Nation":null},{"Id":5390,"Name":"Borussia-Park Kunstrasenplatz","NationId":586,"Capacity":"???","Town":"Mönchengladbach","Latitude":51.174594879150391,"Longitude":6.3854384422302246,"Teams":null,"Nation":null},{"Id":5475,"Name":"Borussia-Park Nebenplatz 1","NationId":586,"Capacity":"???","Town":"Mönchengladbach","Latitude":51.174594879150391,"Longitude":6.3854384422302246,"Teams":null,"Nation":null},{"Id":5581,"Name":"Borussia-Park Nebenplatz 1","NationId":586,"Capacity":"???","Town":"Mönchengladbach","Latitude":51.174594879150391,"Longitude":6.3854384422302246,"Teams":null,"Nation":null},{"Id":5582,"Name":"Borussia-Park Nebenplatz 10","NationId":586,"Capacity":"???","Town":"Mönchengladbach","Latitude":51.174594879150391,"Longitude":6.3854384422302246,"Teams":null,"Nation":null},{"Id":5476,"Name":"Borussia-Park Nebenplatz 10","NationId":586,"Capacity":"???","Town":"Mönchengladbach","Latitude":51.174594879150391,"Longitude":6.3854384422302246,"Teams":null,"Nation":null},{"Id":4840,"Name":"Borussia-Park Nebenplatz 10","NationId":586,"Capacity":"???","Town":"Mönchengladbach","Latitude":51.174594879150391,"Longitude":6.3854384422302246,"Teams":null,"Nation":null},{"Id":4328,"Name":"Bosuil","NationId":529,"Capacity":"16.649","Town":"Antwerp","Latitude":51.232452392578125,"Longitude":4.471982479095459,"Teams":"59880","Nation":null},{"Id":4378,"Name":"Botev-1912","NationId":539,"Capacity":"3.000","Town":"Plovdiv","Latitude":42.106739044189453,"Longitude":24.706655502319336,"Teams":null,"Nation":null},{"Id":5927,"Name":"Boundary Park","NationId":579,"Capacity":"13.624","Town":"Oldham","Latitude":53.555126190185547,"Longitude":-2.1284723281860352,"Teams":"52763","Nation":null},{"Id":5777,"Name":"Boundary Park","NationId":579,"Capacity":"13.624","Town":"Oldham","Latitude":53.555126190185547,"Longitude":-2.1284723281860352,"Teams":"52763","Nation":null},{"Id":3682,"Name":"Bozsik-József-Stadion","NationId":592,"Capacity":"10.000","Town":"Budapest","Latitude":47.442470550537109,"Longitude":19.155071258544922,"Teams":"59667","Nation":null},{"Id":3891,"Name":"Bozsik-József-Stadion","NationId":592,"Capacity":"10.000","Town":"Budapest","Latitude":47.442470550537109,"Longitude":19.155071258544922,"Teams":"59667","Nation":null},{"Id":7439,"Name":"Bozsik-József-Stadion","NationId":592,"Capacity":"10.000","Town":"Budapest","Latitude":47.442470550537109,"Longitude":19.155071258544922,"Teams":"59667","Nation":null},{"Id":5928,"Name":"Bramall Lane","NationId":579,"Capacity":"33.000","Town":"Sheffield","Latitude":53.370338439941406,"Longitude":-1.4708536863327026,"Teams":"52747","Nation":null},{"Id":5831,"Name":"Bramall Lane","NationId":579,"Capacity":"33.000","Town":"Sheffield","Latitude":53.370338439941406,"Longitude":-1.4708536863327026,"Teams":"52747","Nation":null},{"Id":5728,"Name":"Bramall Lane","NationId":579,"Capacity":"33.000","Town":"Sheffield","Latitude":53.370338439941406,"Longitude":-1.4708536863327026,"Teams":"52747","Nation":null},{"Id":6020,"Name":"Brandywell","NationId":607,"Capacity":"10.000","Town":"Derry","Latitude":0.0,"Longitude":0.0,"Teams":"59668","Nation":null},{"Id":3683,"Name":"Brandywell","NationId":607,"Capacity":"10.000","Town":"Derry","Latitude":0.0,"Longitude":0.0,"Teams":"59668","Nation":null},{"Id":6348,"Name":"Brann Stadion","NationId":608,"Capacity":"17.317","Town":"Bergen","Latitude":60.366920471191406,"Longitude":5.3574552536010742,"Teams":"60245","Nation":null},{"Id":7166,"Name":"Bravida Arena","NationId":625,"Capacity":"6.500","Town":"Göteborg","Latitude":57.719200134277344,"Longitude":11.930500984191895,"Teams":null,"Nation":null},{"Id":7134,"Name":"Bravida Arena","NationId":625,"Capacity":"6.500","Town":"Göteborg","Latitude":57.719200134277344,"Longitude":11.930500984191895,"Teams":null,"Nation":null},{"Id":7149,"Name":"Bravida Arena","NationId":625,"Capacity":"6.500","Town":"Göteborg","Latitude":57.719200134277344,"Longitude":11.930500984191895,"Teams":null,"Nation":null},{"Id":3684,"Name":"Bravida Arena","NationId":625,"Capacity":"6.500","Town":"Göteborg","Latitude":57.719200134277344,"Longitude":11.930500984191895,"Teams":null,"Nation":null},{"Id":5128,"Name":"Breite Bruch Rasenplatz","NationId":586,"Capacity":"???","Town":"Paderborn","Latitude":51.764419555664062,"Longitude":8.8029975891113281,"Teams":null,"Nation":null},{"Id":5129,"Name":"Bremenstadion","NationId":586,"Capacity":"???","Town":"Ennepetal","Latitude":51.294334411621094,"Longitude":7.3462738990783691,"Teams":"60122","Nation":null},{"Id":4757,"Name":"Bremer Brücke","NationId":586,"Capacity":"16.667","Town":"Osnabrück","Latitude":52.280826568603516,"Longitude":8.07121753692627,"Teams":"59957","Nation":null},{"Id":4734,"Name":"Bremer Brücke","NationId":586,"Capacity":"16.667","Town":"Osnabrück","Latitude":52.280826568603516,"Longitude":8.07121753692627,"Teams":"59957","Nation":null},{"Id":5408,"Name":"Brentano-Stadion","NationId":586,"Capacity":"5.500","Town":"Frankfurt am Main","Latitude":50.124813079833984,"Longitude":8.6206197738647461,"Teams":"60153","Nation":null},{"Id":5349,"Name":"Brentano-Stadion","NationId":586,"Capacity":"5.500","Town":"Frankfurt am Main","Latitude":50.124813079833984,"Longitude":8.6206197738647461,"Teams":"60153","Nation":null},{"Id":5310,"Name":"Brentano-Stadion","NationId":586,"Capacity":"5.500","Town":"Frankfurt am Main","Latitude":50.124813079833984,"Longitude":8.6206197738647461,"Teams":"60153","Nation":null},{"Id":5323,"Name":"Brentano-Stadion","NationId":586,"Capacity":"5.500","Town":"Frankfurt am Main","Latitude":50.124813079833984,"Longitude":8.6206197738647461,"Teams":"60153","Nation":null},{"Id":6362,"Name":"Briskeby Arena","NationId":608,"Capacity":"8.068","Town":"Hamar","Latitude":60.795623779296875,"Longitude":11.092371940612793,"Teams":"60252","Nation":null},{"Id":4735,"Name":"Brita-Arena","NationId":586,"Capacity":"13.500","Town":"Wiesbaden","Latitude":50.071113586425781,"Longitude":8.25621509552002,"Teams":"59958","Nation":null},{"Id":4758,"Name":"Brita-Arena","NationId":586,"Capacity":"13.500","Town":"Wiesbaden","Latitude":50.071113586425781,"Longitude":8.25621509552002,"Teams":"59958","Nation":null},{"Id":3685,"Name":"Brøndby Stadion","NationId":571,"Capacity":"29.000","Town":"Brøndby","Latitude":55.648971557617188,"Longitude":12.418606758117676,"Teams":"59669","Nation":null},{"Id":3950,"Name":"Brøndby Stadion","NationId":571,"Capacity":"29.000","Town":"Brøndby","Latitude":55.648971557617188,"Longitude":12.418606758117676,"Teams":"59669","Nation":null},{"Id":4447,"Name":"Brøndby Stadion","NationId":571,"Capacity":"29.000","Town":"Brøndby","Latitude":55.648971557617188,"Longitude":12.418606758117676,"Teams":"59669","Nation":null},{"Id":4410,"Name":"Brøndby Stadion","NationId":571,"Capacity":"29.000","Town":"Brøndby","Latitude":55.648971557617188,"Longitude":12.418606758117676,"Teams":"59669","Nation":null},{"Id":4400,"Name":"Brøndby Stadion","NationId":571,"Capacity":"29.000","Town":"Brøndby","Latitude":55.648971557617188,"Longitude":12.418606758117676,"Teams":"59669","Nation":null},{"Id":4861,"Name":"Bruchwegstadion","NationId":586,"Capacity":"20.300","Town":"Mainz","Latitude":50.000930786132812,"Longitude":8.24573040008545,"Teams":"59994","Nation":null},{"Id":5502,"Name":"Bruchwegstadion","NationId":586,"Capacity":"20.300","Town":"Mainz","Latitude":50.000930786132812,"Longitude":8.24573040008545,"Teams":"59994","Nation":null},{"Id":5610,"Name":"Bruchwegstadion","NationId":586,"Capacity":"20.300","Town":"Mainz","Latitude":50.000930786132812,"Longitude":8.24573040008545,"Teams":"59994","Nation":null},{"Id":7258,"Name":"Brügglifeld","NationId":626,"Capacity":"9.250","Town":"Aarau","Latitude":47.383338928222656,"Longitude":8.0598049163818359,"Teams":"60489","Nation":null},{"Id":7228,"Name":"Brügglifeld","NationId":626,"Capacity":"9.250","Town":"Aarau","Latitude":47.383338928222656,"Longitude":8.0598049163818359,"Teams":"60489","Nation":null},{"Id":7167,"Name":"Brunna IP 1","NationId":625,"Capacity":"???","Town":"Södertälje","Latitude":0.0,"Longitude":0.0,"Teams":null,"Nation":null},{"Id":6144,"Name":"Bruno Benelli","NationId":596,"Capacity":"12.020","Town":"Ravenna","Latitude":44.406219482421875,"Longitude":12.194845199584961,"Teams":"60224","Nation":null},{"Id":6145,"Name":"Bruno Recchioni","NationId":596,"Capacity":"???","Town":"Fermo","Latitude":0.0,"Longitude":0.0,"Teams":null,"Nation":null},{"Id":4825,"Name":"Bruno-Plache-Stadion","NationId":586,"Capacity":"10.900","Town":"Leipzig","Latitude":51.302902221679688,"Longitude":12.419282913208008,"Teams":"59909","Nation":null},{"Id":4513,"Name":"Bruno-Plache-Stadion","NationId":586,"Capacity":"10.900","Town":"Leipzig","Latitude":51.302902221679688,"Longitude":12.419282913208008,"Teams":"59909","Nation":null},{"Id":4474,"Name":"Bruno-Plache-Stadion","NationId":586,"Capacity":"10.900","Town":"Leipzig","Latitude":51.302902221679688,"Longitude":12.419282913208008,"Teams":"59909","Nation":null},{"Id":5929,"Name":"Brunton Park","NationId":579,"Capacity":"16.651","Town":"Carlisle","Latitude":54.8955078125,"Longitude":-2.9135870933532715,"Teams":"52822","Nation":null},{"Id":5778,"Name":"Brunton Park","NationId":579,"Capacity":"16.651","Town":"Carlisle","Latitude":54.8955078125,"Longitude":-2.9135870933532715,"Teams":"52822","Nation":null},{"Id":5324,"Name":"BSA Ardelhütte","NationId":586,"Capacity":"???","Town":"Essen","Latitude":51.458904266357422,"Longitude":6.9302611351013184,"Teams":null,"Nation":null},{"Id":5583,"Name":"BSA Baulandstraße","NationId":586,"Capacity":"???","Town":"Gelsenkirchen","Latitude":51.588600158691406,"Longitude":7.0126514434814453,"Teams":null,"Nation":null},{"Id":4938,"Name":"BSA Bürgerpark","NationId":586,"Capacity":"2.500","Town":"Bremerhaven","Latitude":53.539882659912109,"Longitude":8.61155891418457,"Teams":"60032","Nation":null},{"Id":5584,"Name":"BSA Garath","NationId":586,"Capacity":"???","Town":"Düsseldorf","Latitude":51.149578094482422,"Longitude":6.89011287689209,"Teams":null,"Nation":null},{"Id":4939,"Name":"BSA Gröpelingen","NationId":586,"Capacity":"???","Town":"Bremen","Latitude":53.116264343261719,"Longitude":8.7725992202758789,"Teams":"60033","Nation":null},{"Id":5048,"Name":"BSA Hamborn","NationId":586,"Capacity":"2.000","Town":"Duisburg","Latitude":51.512897491455078,"Longitude":6.7621889114379883,"Teams":null,"Nation":null},{"Id":5427,"Name":"BSA Hamborn 07","NationId":586,"Capacity":"5.000","Town":"Duisburg","Latitude":51.505409240722656,"Longitude":6.7778759002685547,"Teams":null,"Nation":null},{"Id":5049,"Name":"BSA Heerdt Kunstrasenplatz","NationId":586,"Capacity":"1.000","Town":"Düsseldorf","Latitude":51.2321662902832,"Longitude":6.7306289672851562,"Teams":null,"Nation":null},{"Id":5106,"Name":"BSA Mainz-Mombach","NationId":586,"Capacity":"???","Town":"Mainz","Latitude":50.012596130371094,"Longitude":8.2262659072875977,"Teams":null,"Nation":null},{"Id":5227,"Name":"BSA Mitte","NationId":586,"Capacity":"8.000","Town":"Ingolstadt","Latitude":48.766353607177734,"Longitude":11.413620948791504,"Teams":null,"Nation":null},{"Id":5477,"Name":"BSA Mitte II","NationId":586,"Capacity":"???","Town":"Essen","Latitude":51.477191925048828,"Longitude":7.0209059715271,"Teams":null,"Nation":null},{"Id":5050,"Name":"BSA Oberkassel Kunstrasenplatz","NationId":586,"Capacity":"500","Town":"Düsseldorf","Latitude":51.237186431884766,"Longitude":6.7514190673828125,"Teams":null,"Nation":null},{"Id":5528,"Name":"BSA Obervieland","NationId":586,"Capacity":"4.000","Town":"Bremen","Latitude":53.025344848632812,"Longitude":8.836329460144043,"Teams":"60164","Nation":null},{"Id":5478,"Name":"BSA Oststadt","NationId":586,"Capacity":"???","Town":"Essen","Latitude":51.447853088378906,"Longitude":7.1169939041137695,"Teams":"59991","Nation":null},{"Id":5585,"Name":"BSA Oststadt","NationId":586,"Capacity":"???","Town":"Essen","Latitude":51.447853088378906,"Longitude":7.1169939041137695,"Teams":"59991","Nation":null},{"Id":5051,"Name":"BSA Ratingen (Kunstrasenplatz)","NationId":586,"Capacity":"2.000","Town":"Ratingen","Latitude":51.307365417480469,"Longitude":6.8392062187194824,"Teams":"60095","Nation":null},{"Id":5107,"Name":"BSA Rheingönheim","NationId":586,"Capacity":"???","Town":"Ludwigshafen","Latitude":49.438385009765625,"Longitude":8.4279117584228516,"Teams":null,"Nation":null},{"Id":4940,"Name":"BSA Rollsportstadion","NationId":586,"Capacity":"???","Town":"Bremen","Latitude":53.063030242919922,"Longitude":8.84508228302002,"Teams":"19850","Nation":null},{"Id":5052,"Name":"BSA Schetters Busch (Kunstrasenplatz)","NationId":586,"Capacity":"2.000","Town":"Essen","Latitude":51.4785270690918,"Longitude":7.068458080291748,"Teams":"60096","Nation":null},{"Id":5053,"Name":"BSA Stadion Feuerbachstraße","NationId":586,"Capacity":"7.000","Town":"Düsseldorf","Latitude":51.209270477294922,"Longitude":6.7918357849121094,"Teams":"60097","Nation":null},{"Id":5267,"Name":"BSA Stadion Feuerbachstraße","NationId":586,"Capacity":"7.000","Town":"Düsseldorf","Latitude":51.209270477294922,"Longitude":6.7918357849121094,"Teams":"60097","Nation":null},{"Id":4941,"Name":"BSA Süd","NationId":586,"Capacity":"???","Town":"Bremen","Latitude":53.055103302001953,"Longitude":8.8095560073852539,"Teams":null,"Nation":null},{"Id":5529,"Name":"BSA Uellendahl","NationId":586,"Capacity":"3.500","Town":"Wuppertal","Latitude":51.282600402832031,"Longitude":7.1676135063171387,"Teams":"48261","Nation":null},{"Id":5479,"Name":"BSA Westender Straße","NationId":586,"Capacity":"5.000","Town":"Duisburg","Latitude":51.464008331298828,"Longitude":6.784454345703125,"Teams":"48256","Nation":null},{"Id":5586,"Name":"BSA Westender Straße","NationId":586,"Capacity":"5.000","Town":"Duisburg","Latitude":51.464008331298828,"Longitude":6.784454345703125,"Teams":"48256","Nation":null},{"Id":5268,"Name":"BSA Westender Straße","NationId":586,"Capacity":"5.000","Town":"Duisburg","Latitude":51.464008331298828,"Longitude":6.784454345703125,"Teams":"48256","Nation":null},{"Id":3686,"Name":"BSFZ-Arena","NationId":514,"Capacity":"12.000","Town":"Maria Enzersdorf","Latitude":48.09747314453125,"Longitude":16.311382293701172,"Teams":"59670","Nation":null},{"Id":7943,"Name":"Bukit Jalil National Stadium","NationId":716,"Capacity":"87.411","Town":"Kuala Lumpur","Latitude":0.0,"Longitude":0.0,"Teams":null,"Nation":null},